$GPGGA,092911.00,3118.39894813,N,12145.62927158,E,2,09,1.0,30.000,M,-2.801,M,5.0,0129*68
$GPVTG,111,T,,M,5.88,N,10.88,K,D*23
$GPHDT,110.521,T*33
$GPGGA,092911.00,3118.39859848,N,12145.63020851,E,2,09,1.0,30.000,M,-2.801,M,5.0,0129*68
$GPVTG,111,T,,M,5.88,N,10.88,K,D*23
$GPHDT,110.521,T*33
$GPGGA,092911.00,3118.39824884,N,12145.63114544,E,2,09,1.0,30.000,M,-2.801,M,5.0,0129*6D
$GPVTG,111,T,,M,5.88,N,10.88,K,D*23
$GPHDT,110.521,T*33
$GPGGA,092911.00,3118.39789919,N,12145.63208237,E,2,09,1.0,30.000,M,-2.801,M,5.0,0129*6D
$GPVTG,111,T,,M,5.88,N,10.88,K,D*23
$GPHDT,110.521,T*33
$GPGGA,092911.00,3118.39754955,N,12145.63301930,E,2,09,1.0,30.000,M,-2.801,M,5.0,0129*61
$GPVTG,111,T,,M,5.88,N,10.88,K,D*23
$GPHDT,110.521,T*33
$GPGGA,092911.00,3118.39719990,N,12145.63395623,E,2,09,1.0,30.000,M,-2.801,M,5.0,0129*61
$GPVTG,111,T,,M,5.88,N,10.88,K,D*23
$GPHDT,110.521,T*33
$GPGGA,092911.00,3118.39685026,N,12145.63489316,E,2,09,1.0,30.000,M,-2.801,M,5.0,0129*68
$GPVTG,111,T,,M,5.88,N,10.88,K,D*23
$GPHDT,110.521,T*33
$GPGGA,092911.00,3118.39650061,N,12145.63583009,E,2,09,1.0,30.000,M,-2.801,M,5.0,0129*65
$GPVTG,111,T,,M,5.88,N,10.88,K,D*23
$GPHDT,110.521,T*33
$GPGGA,092911.00,3118.39615097,N,12145.63676702,E,2,09,1.0,30.000,M,-2.801,M,5.0,0129*68
$GPVTG,111,T,,M,5.88,N,10.88,K,D*23
$GPHDT,110.521,T*33
$GPGGA,092911.00,3118.39580132,N,12145.63770395,E,2,09,1.0,30.000,M,-2.801,M,5.0,0129*64
$GPVTG,111,T,,M,5.88,N,10.88,K,D*23
$GPHDT,110.521,T*33
$GPGGA,092911.00,3118.39545167,N,12145.63864088,E,2,09,1.0,30.000,M,-2.801,M,5.0,0129*68
$GPVTG,111,T,,M,5.88,N,10.88,K,D*23
$GPHDT,110.521,T*33
$GPGGA,092911.00,3118.39510203,N,12145.63957781,E,2,09,1.0,30.000,M,-2.801,M,5.0,0129*66
$GPVTG,111,T,,M,5.88,N,10.88,K,D*23
$GPHDT,110.521,T*33
$GPGGA,092911.00,3118.39475238,N,12145.64051474,E,2,09,1.0,30.000,M,-2.801,M,5.0,0129*6D
$GPVTG,111,T,,M,5.88,N,10.88,K,D*23
$GPHDT,110.521,T*33
$GPGGA,092911.00,3118.39440274,N,12145.64145167,E,2,09,1.0,30.000,M,-2.801,M,5.0,0129*60
$GPVTG,111,T,,M,5.88,N,10.88,K,D*23
$GPHDT,110.521,T*33
$GPGGA,092911.00,3118.39405309,N,12145.64238860,E,2,09,1.0,30.000,M,-2.801,M,5.0,0129*6D
$GPVTG,111,T,,M,5.88,N,10.88,K,D*23
$GPHDT,110.521,T*33
$GPGGA,092911.00,3118.39370345,N,12145.64332553,E,2,09,1.0,30.000,M,-2.801,M,5.0,0129*66
$GPVTG,111,T,,M,5.88,N,10.88,K,D*23
$GPHDT,110.521,T*33
$GPGGA,092911.00,3118.39335380,N,12145.64426246,E,2,09,1.0,30.000,M,-2.801,M,5.0,0129*6F
$GPVTG,111,T,,M,5.88,N,10.88,K,D*23
$GPHDT,110.521,T*33
$GPGGA,092911.00,3118.39300416,N,12145.64519939,E,2,09,1.0,30.000,M,-2.801,M,5.0,0129*6F
$GPVTG,111,T,,M,5.88,N,10.88,K,D*23
$GPHDT,110.521,T*33
$GPGGA,092911.00,3118.39265451,N,12145.64613632,E,2,09,1.0,30.000,M,-2.801,M,5.0,0129*63
$GPVTG,111,T,,M,5.88,N,10.88,K,D*23
$GPHDT,110.521,T*33
$GPGGA,092911.00,3118.39230486,N,12145.64707325,E,2,09,1.0,30.000,M,-2.801,M,5.0,0129*6E
$GPVTG,111,T,,M,5.88,N,10.88,K,D*23
$GPHDT,110.521,T*33
$GPGGA,092911.00,3118.39195522,N,12145.64801018,E,2,09,1.0,30.000,M,-2.801,M,5.0,0129*69
$GPVTG,111,T,,M,5.88,N,10.88,K,D*23
$GPHDT,110.521,T*33
$GPGGA,092911.00,3118.39160557,N,12145.64894711,E,2,09,1.0,30.000,M,-2.801,M,5.0,0129*63
$GPVTG,111,T,,M,5.88,N,10.88,K,D*23
$GPHDT,110.521,T*33
$GPGGA,092911.00,3118.39125593,N,12145.64988404,E,2,09,1.0,30.000,M,-2.801,M,5.0,0129*61
$GPVTG,111,T,,M,5.88,N,10.88,K,D*23
$GPHDT,110.521,T*33
$GPGGA,092911.00,3118.39090628,N,12145.65082097,E,2,09,1.0,30.000,M,-2.801,M,5.0,0129*61
$GPVTG,111,T,,M,5.88,N,10.88,K,D*23
$GPHDT,110.521,T*33
$GPGGA,092911.00,3118.39055664,N,12145.65175790,E,2,09,1.0,30.000,M,-2.801,M,5.0,0129*69
$GPVTG,111,T,,M,5.88,N,10.88,K,D*23
$GPHDT,110.521,T*33
$GPGGA,092911.00,3118.39020699,N,12145.65269483,E,2,09,1.0,30.000,M,-2.801,M,5.0,0129*66
$GPVTG,111,T,,M,5.88,N,10.88,K,D*23
$GPHDT,110.521,T*33
$GPGGA,092911.00,3118.38985735,N,12145.65363176,E,2,09,1.0,30.000,M,-2.801,M,5.0,0129*62
$GPVTG,111,T,,M,5.88,N,10.88,K,D*23
$GPHDT,110.521,T*33
$GPGGA,092911.00,3118.38950770,N,12145.65456869,E,2,09,1.0,30.000,M,-2.801,M,5.0,0129*6D
$GPVTG,111,T,,M,5.88,N,10.88,K,D*23
$GPHDT,110.521,T*33
$GPGGA,092911.00,3118.38915805,N,12145.65550562,E,2,09,1.0,30.000,M,-2.801,M,5.0,0129*60
$GPVTG,111,T,,M,5.88,N,10.88,K,D*23
$GPHDT,110.521,T*33
$GPGGA,092911.00,3118.38880841,N,12145.65644255,E,2,09,1.0,30.000,M,-2.801,M,5.0,0129*68
$GPVTG,111,T,,M,5.88,N,10.88,K,D*23
$GPHDT,110.521,T*33
$GPGGA,092911.00,3118.38845876,N,12145.65737948,E,2,09,1.0,30.000,M,-2.801,M,5.0,0129*67
$GPVTG,111,T,,M,5.88,N,10.88,K,D*23
$GPHDT,110.521,T*33
$GPGGA,092911.00,3118.38810912,N,12145.65831641,E,2,09,1.0,30.000,M,-2.801,M,5.0,0129*6B
$GPVTG,111,T,,M,5.88,N,10.88,K,D*23
$GPHDT,110.521,T*33
$GPGGA,092911.00,3118.38775947,N,12145.65925334,E,2,09,1.0,30.000,M,-2.801,M,5.0,0129*64
$GPVTG,111,T,,M,5.88,N,10.88,K,D*23
$GPHDT,110.521,T*33
$GPGGA,092911.00,3118.38740983,N,12145.66019027,E,2,09,1.0,30.000,M,-2.801,M,5.0,0129*6E
$GPVTG,111,T,,M,5.88,N,10.88,K,D*23
$GPHDT,110.521,T*33
$GPGGA,092911.00,3118.38706018,N,12145.66112720,E,2,09,1.0,30.000,M,-2.801,M,5.0,0129*6D
$GPVTG,111,T,,M,5.88,N,10.88,K,D*23
$GPHDT,110.521,T*33
$GPGGA,092911.00,3118.38671054,N,12145.66206413,E,2,09,1.0,30.000,M,-2.801,M,5.0,0129*61
$GPVTG,111,T,,M,5.88,N,10.88,K,D*23
$GPHDT,110.521,T*33
$GPGGA,092911.00,3118.38636089,N,12145.66300106,E,2,09,1.0,30.000,M,-2.801,M,5.0,0129*64
$GPVTG,111,T,,M,5.88,N,10.88,K,D*23
$GPHDT,110.521,T*33
$GPGGA,092911.00,3118.38601124,N,12145.66393799,E,2,09,1.0,30.000,M,-2.801,M,5.0,0129*6C
$GPVTG,111,T,,M,5.88,N,10.88,K,D*23
$GPHDT,110.521,T*33
$GPGGA,092911.00,3118.38566160,N,12145.66487492,E,2,09,1.0,30.000,M,-2.801,M,5.0,0129*64
$GPVTG,111,T,,M,5.88,N,10.88,K,D*23
$GPHDT,110.521,T*33
$GPGGA,092911.00,3118.38531195,N,12145.66581185,E,2,09,1.0,30.000,M,-2.801,M,5.0,0129*68
$GPVTG,111,T,,M,5.88,N,10.88,K,D*23
$GPHDT,110.521,T*33
$GPGGA,092911.00,3118.38496231,N,12145.66674879,E,2,09,1.0,30.000,M,-2.801,M,5.0,0129*6A
$GPVTG,111,T,,M,5.88,N,10.88,K,D*23
$GPHDT,110.521,T*33
$GPGGA,092911.00,3118.38461266,N,12145.66768572,E,2,09,1.0,30.000,M,-2.801,M,5.0,0129*6A
$GPVTG,111,T,,M,5.88,N,10.88,K,D*23
$GPHDT,110.521,T*33
$GPGGA,092911.00,3118.38426302,N,12145.66862265,E,2,09,1.0,30.000,M,-2.801,M,5.0,0129*6E
$GPVTG,111,T,,M,5.88,N,10.88,K,D*23
$GPHDT,110.521,T*33
$GPGGA,092911.00,3118.38391337,N,12145.66955958,E,2,09,1.0,30.000,M,-2.801,M,5.0,0129*63
$GPVTG,111,T,,M,5.88,N,10.88,K,D*23
$GPHDT,110.521,T*33
$GPGGA,092911.00,3118.38356373,N,12145.67049651,E,2,09,1.0,30.000,M,-2.801,M,5.0,0129*6B
$GPVTG,111,T,,M,5.88,N,10.88,K,D*23
$GPHDT,110.521,T*33
$GPGGA,092911.00,3118.38321408,N,12145.67143344,E,2,09,1.0,30.000,M,-2.801,M,5.0,0129*6A
$GPVTG,111,T,,M,5.88,N,10.88,K,D*23
$GPHDT,110.521,T*33
$GPGGA,092911.00,3118.38286444,N,12145.67237037,E,2,09,1.0,30.000,M,-2.801,M,5.0,0129*69
$GPVTG,111,T,,M,5.88,N,10.88,K,D*23
$GPHDT,110.521,T*33
$GPGGA,092911.00,3118.38251479,N,12145.67330730,E,2,09,1.0,30.000,M,-2.801,M,5.0,0129*6B
$GPVTG,111,T,,M,5.88,N,10.88,K,D*23
$GPHDT,110.521,T*33
$GPGGA,092911.00,3118.38216514,N,12145.67424423,E,2,09,1.0,30.000,M,-2.801,M,5.0,0129*61
$GPVTG,111,T,,M,5.88,N,10.88,K,D*23
$GPHDT,110.521,T*33
$GPGGA,092911.00,3118.38181550,N,12145.67518116,E,2,09,1.0,30.000,M,-2.801,M,5.0,0129*61
$GPVTG,111,T,,M,5.88,N,10.88,K,D*23
$GPHDT,110.521,T*33
$GPGGA,092911.00,3118.38146585,N,12145.67611809,E,2,09,1.0,30.000,M,-2.801,M,5.0,0129*6F
$GPVTG,111,T,,M,5.88,N,10.88,K,D*23
$GPHDT,110.521,T*33
$GPGGA,092911.00,3118.38111621,N,12145.67705502,E,2,09,1.0,30.000,M,-2.801,M,5.0,0129*62
$GPVTG,111,T,,M,5.88,N,10.88,K,D*23
$GPHDT,110.521,T*33
$GPGGA,092911.00,3118.38076656,N,12145.67799195,E,2,09,1.0,30.000,M,-2.801,M,5.0,0129*6D
$GPVTG,111,T,,M,5.88,N,10.88,K,D*23
$GPHDT,110.521,T*33
$GPGGA,092911.00,3118.38041692,N,12145.67892888,E,2,09,1.0,30.000,M,-2.801,M,5.0,0129*60
$GPVTG,111,T,,M,5.88,N,10.88,K,D*23
$GPHDT,110.521,T*33
$GPGGA,092911.00,3118.38006727,N,12145.67986581,E,2,09,1.0,30.000,M,-2.801,M,5.0,0129*6C
$GPVTG,111,T,,M,5.88,N,10.88,K,D*23
$GPHDT,110.521,T*33
$GPGGA,092911.00,3118.37971763,N,12145.68080274,E,2,09,1.0,30.000,M,-2.801,M,5.0,0129*67
$GPVTG,111,T,,M,5.88,N,10.88,K,D*23
$GPHDT,110.521,T*33
$GPGGA,092911.00,3118.37936798,N,12145.68173967,E,2,09,1.0,30.000,M,-2.801,M,5.0,0129*64
$GPVTG,111,T,,M,5.88,N,10.88,K,D*23
$GPHDT,110.521,T*33
$GPGGA,092911.00,3118.37901833,N,12145.68267660,E,2,09,1.0,30.000,M,-2.801,M,5.0,0129*60
$GPVTG,111,T,,M,5.88,N,10.88,K,D*23
$GPHDT,110.521,T*33
$GPGGA,092911.00,3118.37866869,N,12145.68361353,E,2,09,1.0,30.000,M,-2.801,M,5.0,0129*6D
$GPVTG,111,T,,M,5.88,N,10.88,K,D*23
$GPHDT,110.521,T*33
$GPGGA,092911.00,3118.37831904,N,12145.68455046,E,2,09,1.0,30.000,M,-2.801,M,5.0,0129*62
$GPVTG,111,T,,M,5.88,N,10.88,K,D*23
$GPHDT,110.521,T*33
$GPGGA,092911.00,3118.37796940,N,12145.68548739,E,2,09,1.0,30.000,M,-2.801,M,5.0,0129*62
$GPVTG,111,T,,M,5.88,N,10.88,K,D*23
$GPHDT,110.521,T*33
$GPGGA,092911.00,3118.37761975,N,12145.68642432,E,2,09,1.0,30.000,M,-2.801,M,5.0,0129*6D
$GPVTG,111,T,,M,5.88,N,10.88,K,D*23
$GPHDT,110.521,T*33
$GPGGA,092911.00,3118.37727011,N,12145.68736125,E,2,09,1.0,30.000,M,-2.801,M,5.0,0129*65
$GPVTG,111,T,,M,5.88,N,10.88,K,D*23
$GPHDT,110.521,T*33
$GPGGA,092911.00,3118.37692046,N,12145.68829818,E,2,09,1.0,30.000,M,-2.801,M,5.0,0129*6E
$GPVTG,111,T,,M,5.88,N,10.88,K,D*23
$GPHDT,110.521,T*33
$GPGGA,092911.00,3118.37657082,N,12145.68923511,E,2,09,1.0,30.000,M,-2.801,M,5.0,0129*60
$GPVTG,111,T,,M,5.88,N,10.88,K,D*23
$GPHDT,110.521,T*33
$GPGGA,092911.00,3118.37622117,N,12145.69017204,E,2,09,1.0,30.000,M,-2.801,M,5.0,0129*63
$GPVTG,111,T,,M,5.88,N,10.88,K,D*23
$GPHDT,110.521,T*33
$GPGGA,092911.00,3118.37587152,N,12145.69110897,E,2,09,1.0,30.000,M,-2.801,M,5.0,0129*68
$GPVTG,111,T,,M,5.88,N,10.88,K,D*23
$GPHDT,110.521,T*33
$GPGGA,092911.00,3118.37552188,N,12145.69204590,E,2,09,1.0,30.000,M,-2.801,M,5.0,0129*6B
$GPVTG,111,T,,M,5.88,N,10.88,K,D*23
$GPHDT,110.521,T*33
$GPGGA,092911.00,3118.37517223,N,12145.69298283,E,2,09,1.0,30.000,M,-2.801,M,5.0,0129*68
$GPVTG,111,T,,M,5.88,N,10.88,K,D*23
$GPHDT,110.521,T*33
$GPGGA,092911.00,3118.37482259,N,12145.69391976,E,2,09,1.0,30.000,M,-2.801,M,5.0,0129*61
$GPVTG,111,T,,M,5.88,N,10.88,K,D*23
$GPHDT,110.521,T*33
$GPGGA,092911.00,3118.37447294,N,12145.69485669,E,2,09,1.0,30.000,M,-2.801,M,5.0,0129*6A
$GPVTG,111,T,,M,5.88,N,10.88,K,D*23
$GPHDT,110.521,T*33
$GPGGA,092911.00,3118.37412330,N,12145.69579362,E,2,09,1.0,30.000,M,-2.801,M,5.0,0129*69
$GPVTG,111,T,,M,5.88,N,10.88,K,D*23
$GPHDT,110.521,T*33
$GPGGA,092911.00,3118.37377365,N,12145.69673055,E,2,09,1.0,30.000,M,-2.801,M,5.0,0129*63
$GPVTG,111,T,,M,5.88,N,10.88,K,D*23
$GPHDT,110.521,T*33
$GPGGA,092911.00,3118.37342401,N,12145.69766748,E,2,09,1.0,30.000,M,-2.801,M,5.0,0129*6E
$GPVTG,111,T,,M,5.88,N,10.88,K,D*23
$GPHDT,110.521,T*33
$GPGGA,092911.00,3118.37307436,N,12145.69860441,E,2,09,1.0,30.000,M,-2.801,M,5.0,0129*68
$GPVTG,111,T,,M,5.88,N,10.88,K,D*23
$GPHDT,110.521,T*33
$GPGGA,092911.00,3118.37272471,N,12145.69954134,E,2,09,1.0,30.000,M,-2.801,M,5.0,0129*69
$GPVTG,111,T,,M,5.88,N,10.88,K,D*23
$GPHDT,110.521,T*33
$GPGGA,092911.00,3118.37237507,N,12145.70047827,E,2,09,1.0,30.000,M,-2.801,M,5.0,0129*60
$GPVTG,111,T,,M,5.88,N,10.88,K,D*23
$GPHDT,110.521,T*33
$GPGGA,092911.00,3118.37202542,N,12145.70141520,E,2,09,1.0,30.000,M,-2.801,M,5.0,0129*6A
$GPVTG,111,T,,M,5.88,N,10.88,K,D*23
$GPHDT,110.521,T*33
$GPGGA,092911.00,3118.37167578,N,12145.70235213,E,2,09,1.0,30.000,M,-2.801,M,5.0,0129*64
$GPVTG,111,T,,M,5.88,N,10.88,K,D*23
$GPHDT,110.521,T*33
$GPGGA,092911.00,3118.37132613,N,12145.70328906,E,2,09,1.0,30.000,M,-2.801,M,5.0,0129*68
$GPVTG,111,T,,M,5.88,N,10.88,K,D*23
$GPHDT,110.521,T*33
$GPGGA,092911.00,3118.37097649,N,12145.70422599,E,2,09,1.0,30.000,M,-2.801,M,5.0,0129*6E
$GPVTG,111,T,,M,5.88,N,10.88,K,D*23
$GPHDT,110.521,T*33
$GPGGA,092911.00,3118.37062684,N,12145.70516292,E,2,09,1.0,30.000,M,-2.801,M,5.0,0129*6F
$GPVTG,111,T,,M,5.88,N,10.88,K,D*23
$GPHDT,110.521,T*33
$GPGGA,092911.00,3118.37027720,N,12145.70609985,E,2,09,1.0,30.000,M,-2.801,M,5.0,0129*61
$GPVTG,111,T,,M,5.88,N,10.88,K,D*23
$GPHDT,110.521,T*33
$GPGGA,092911.00,3118.36992755,N,12145.70703678,E,2,09,1.0,30.000,M,-2.801,M,5.0,0129*63
$GPVTG,111,T,,M,5.88,N,10.88,K,D*23
$GPHDT,110.521,T*33
$GPGGA,092911.00,3118.36957790,N,12145.70797371,E,2,09,1.0,30.000,M,-2.801,M,5.0,0129*62
$GPVTG,111,T,,M,5.88,N,10.88,K,D*23
$GPHDT,110.521,T*33
$GPGGA,092911.00,3118.36922826,N,12145.70891064,E,2,09,1.0,30.000,M,-2.801,M,5.0,0129*6C
$GPVTG,111,T,,M,5.88,N,10.88,K,D*23
$GPHDT,110.521,T*33
$GPGGA,092911.00,3118.36887861,N,12145.70984757,E,2,09,1.0,30.000,M,-2.801,M,5.0,0129*63
$GPVTG,111,T,,M,5.88,N,10.88,K,D*23
$GPHDT,110.521,T*33
$GPGGA,092911.00,3118.36852897,N,12145.71078450,E,2,09,1.0,30.000,M,-2.801,M,5.0,0129*6D
$GPVTG,111,T,,M,5.88,N,10.88,K,D*23
$GPHDT,110.521,T*33
$GPGGA,092911.00,3118.36817932,N,12145.71172143,E,2,09,1.0,30.000,M,-2.801,M,5.0,0129*6E
$GPVTG,111,T,,M,5.88,N,10.88,K,D*23
$GPHDT,110.521,T*33
$GPGGA,092911.00,3118.36782968,N,12145.71265836,E,2,09,1.0,30.000,M,-2.801,M,5.0,0129*6C
$GPVTG,111,T,,M,5.88,N,10.88,K,D*23
$GPHDT,110.521,T*33
$GPGGA,092911.00,3118.36748003,N,12145.71359529,E,2,09,1.0,30.000,M,-2.801,M,5.0,0129*63
$GPVTG,111,T,,M,5.88,N,10.88,K,D*23
$GPHDT,110.521,T*33
$GPGGA,092911.00,3118.36713039,N,12145.71453222,E,2,09,1.0,30.000,M,-2.801,M,5.0,0129*65
$GPVTG,111,T,,M,5.88,N,10.88,K,D*23
$GPHDT,110.521,T*33
$GPGGA,092911.00,3118.36678074,N,12145.71546915,E,2,09,1.0,30.000,M,-2.801,M,5.0,0129*6A
$GPVTG,111,T,,M,5.88,N,10.88,K,D*23
$GPHDT,110.521,T*33
$GPGGA,092911.00,3118.36643109,N,12145.71640608,E,2,09,1.0,30.000,M,-2.801,M,5.0,0129*6F
$GPVTG,111,T,,M,5.88,N,10.88,K,D*23
$GPHDT,110.521,T*33
$GPGGA,092911.00,3118.36608145,N,12145.71734301,E,2,09,1.0,30.000,M,-2.801,M,5.0,0129*66
$GPVTG,111,T,,M,5.88,N,10.88,K,D*23
$GPHDT,110.521,T*33
$GPGGA,092911.00,3118.36573180,N,12145.71827994,E,2,09,1.0,30.000,M,-2.801,M,5.0,0129*6B
$GPVTG,111,T,,M,5.88,N,10.88,K,D*23
$GPHDT,110.521,T*33
$GPGGA,092911.00,3118.36538216,N,12145.71921687,E,2,09,1.0,30.000,M,-2.801,M,5.0,0129*62
$GPVTG,111,T,,M,5.88,N,10.88,K,D*23
$GPHDT,110.521,T*33
$GPGGA,092911.00,3118.36503251,N,12145.72015380,E,2,09,1.0,30.000,M,-2.801,M,5.0,0129*66
$GPVTG,111,T,,M,5.88,N,10.88,K,D*23
$GPHDT,110.521,T*33
$GPGGA,092911.00,3118.36468287,N,12145.72109073,E,2,09,1.0,30.000,M,-2.801,M,5.0,0129*62
$GPVTG,111,T,,M,5.88,N,10.88,K,D*23
$GPHDT,110.521,T*33
$GPGGA,092911.00,3118.36433322,N,12145.72202766,E,2,09,1.0,30.000,M,-2.801,M,5.0,0129*69
$GPVTG,111,T,,M,5.88,N,10.88,K,D*23
$GPHDT,110.521,T*33
$GPGGA,092911.00,3118.36398358,N,12145.72296459,E,2,09,1.0,30.000,M,-2.801,M,5.0,0129*60
$GPVTG,111,T,,M,5.88,N,10.88,K,D*23
$GPHDT,110.521,T*33
$GPGGA,092911.00,3118.36363393,N,12145.72390152,E,2,09,1.0,30.000,M,-2.801,M,5.0,0129*6A
$GPVTG,111,T,,M,5.88,N,10.88,K,D*23
$GPHDT,110.521,T*33
$GPGGA,092911.00,3118.36328428,N,12145.72483845,E,2,09,1.0,30.000,M,-2.801,M,5.0,0129*68
$GPVTG,111,T,,M,5.88,N,10.88,K,D*23
$GPHDT,110.521,T*33
$GPGGA,092911.00,3118.36293464,N,12145.72577538,E,2,09,1.0,30.000,M,-2.801,M,5.0,0129*6C
$GPVTG,111,T,,M,5.88,N,10.88,K,D*23
$GPHDT,110.521,T*33
$GPGGA,092911.00,3118.36258499,N,12145.72671231,E,2,09,1.0,30.000,M,-2.801,M,5.0,0129*62
$GPVTG,111,T,,M,5.88,N,10.88,K,D*23
$GPHDT,110.521,T*33
$GPGGA,092911.00,3118.36223535,N,12145.72764924,E,2,09,1.0,30.000,M,-2.801,M,5.0,0129*63
$GPVTG,111,T,,M,5.88,N,10.88,K,D*23
$GPHDT,110.521,T*33
$GPGGA,092911.00,3118.36188570,N,12145.72858617,E,2,09,1.0,30.000,M,-2.801,M,5.0,0129*6F
$GPVTG,111,T,,M,5.88,N,10.88,K,D*23
$GPHDT,110.521,T*33
$GPGGA,092911.00,3118.36153606,N,12145.72952310,E,2,09,1.0,30.000,M,-2.801,M,5.0,0129*62
$GPVTG,111,T,,M,5.88,N,10.88,K,D*23
$GPHDT,110.521,T*33
$GPGGA,092911.00,3118.36118641,N,12145.73046003,E,2,09,1.0,30.000,M,-2.801,M,5.0,0129*62
$GPVTG,111,T,,M,5.88,N,10.88,K,D*23
$GPHDT,110.521,T*33
$GPGGA,092911.00,3118.36083677,N,12145.73139696,E,2,09,1.0,30.000,M,-2.801,M,5.0,0129*67
$GPVTG,111,T,,M,5.88,N,10.88,K,D*23
$GPHDT,110.521,T*33
$GPGGA,092911.00,3118.36048712,N,12145.73233389,E,2,09,1.0,30.000,M,-2.801,M,5.0,0129*60
$GPVTG,111,T,,M,5.88,N,10.88,K,D*23
$GPHDT,110.521,T*33
$GPGGA,092911.00,3118.36013747,N,12145.73327082,E,2,09,1.0,30.000,M,-2.801,M,5.0,0129*62
$GPVTG,111,T,,M,5.88,N,10.88,K,D*23
$GPHDT,110.521,T*33
$GPGGA,092911.00,3118.35978783,N,12145.73420775,E,2,09,1.0,30.000,M,-2.801,M,5.0,0129*62
$GPVTG,111,T,,M,5.88,N,10.88,K,D*23
$GPHDT,110.521,T*33
$GPGGA,092911.00,3118.35943818,N,12145.73514468,E,2,09,1.0,30.000,M,-2.801,M,5.0,0129*6E
$GPVTG,111,T,,M,5.88,N,10.88,K,D*23
$GPHDT,110.521,T*33
$GPGGA,092911.00,3118.35908854,N,12145.73608161,E,2,09,1.0,30.000,M,-2.801,M,5.0,0129*6B
$GPVTG,111,T,,M,5.88,N,10.88,K,D*23
$GPHDT,110.521,T*33
$GPGGA,092911.00,3118.35873889,N,12145.73701854,E,2,09,1.0,30.000,M,-2.801,M,5.0,0129*61
$GPVTG,111,T,,M,5.88,N,10.88,K,D*23
$GPHDT,110.521,T*33
$GPGGA,092911.00,3118.35838925,N,12145.73795547,E,2,09,1.0,30.000,M,-2.801,M,5.0,0129*6B
$GPVTG,111,T,,M,5.88,N,10.88,K,D*23
$GPHDT,110.521,T*33
$GPGGA,092911.00,3118.35803960,N,12145.73889240,E,2,09,1.0,30.000,M,-2.801,M,5.0,0129*60
$GPVTG,111,T,,M,5.88,N,10.88,K,D*23
$GPHDT,110.521,T*33
$GPGGA,092911.00,3118.35768996,N,12145.73982933,E,2,09,1.0,30.000,M,-2.801,M,5.0,0129*6E
$GPVTG,111,T,,M,5.88,N,10.88,K,D*23
$GPHDT,110.521,T*33
$GPGGA,092911.00,3118.35734031,N,12145.74076626,E,2,09,1.0,30.000,M,-2.801,M,5.0,0129*6D
$GPVTG,111,T,,M,5.88,N,10.88,K,D*23
$GPHDT,110.521,T*33
$GPGGA,092911.00,3118.35699066,N,12145.74170320,E,2,09,1.0,30.000,M,-2.801,M,5.0,0129*6D
$GPVTG,111,T,,M,5.88,N,10.88,K,D*23
$GPHDT,110.521,T*33
$GPGGA,092911.00,3118.35664102,N,12145.74264013,E,2,09,1.0,30.000,M,-2.801,M,5.0,0129*69
$GPVTG,111,T,,M,5.88,N,10.88,K,D*23
$GPHDT,110.521,T*33
$GPGGA,092911.00,3118.35629137,N,12145.74357706,E,2,09,1.0,30.000,M,-2.801,M,5.0,0129*64
$GPVTG,111,T,,M,5.88,N,10.88,K,D*23
$GPHDT,110.521,T*33
$GPGGA,092911.00,3118.35594173,N,12145.74451399,E,2,09,1.0,30.000,M,-2.801,M,5.0,0129*62
$GPVTG,111,T,,M,5.88,N,10.88,K,D*23
$GPHDT,110.521,T*33
$GPGGA,092911.00,3118.35559208,N,12145.74545092,E,2,09,1.0,30.000,M,-2.801,M,5.0,0129*60
$GPVTG,111,T,,M,5.88,N,10.88,K,D*23
$GPHDT,110.521,T*33
$GPGGA,092911.00,3118.35524244,N,12145.74638785,E,2,09,1.0,30.000,M,-2.801,M,5.0,0129*6A
$GPVTG,111,T,,M,5.88,N,10.88,K,D*23
$GPHDT,110.521,T*33
$GPGGA,092911.00,3118.35489279,N,12145.74732478,E,2,09,1.0,30.000,M,-2.801,M,5.0,0129*68
$GPVTG,111,T,,M,5.88,N,10.88,K,D*23
$GPHDT,110.521,T*33
$GPGGA,092911.00,3118.35454315,N,12145.74826171,E,2,09,1.0,30.000,M,-2.801,M,5.0,0129*65
$GPVTG,111,T,,M,5.88,N,10.88,K,D*23
$GPHDT,110.521,T*33
$GPGGA,092911.00,3118.35419350,N,12145.74919864,E,2,09,1.0,30.000,M,-2.801,M,5.0,0129*6D
$GPVTG,111,T,,M,5.88,N,10.88,K,D*23
$GPHDT,110.521,T*33
$GPGGA,092911.00,3118.35384386,N,12145.75013557,E,2,09,1.0,30.000,M,-2.801,M,5.0,0129*6A
$GPVTG,111,T,,M,5.88,N,10.88,K,D*23
$GPHDT,110.521,T*33
$GPGGA,092911.00,3118.35349421,N,12145.75107250,E,2,09,1.0,30.000,M,-2.801,M,5.0,0129*65
$GPVTG,111,T,,M,5.88,N,10.88,K,D*23
$GPHDT,110.521,T*33
$GPGGA,092911.00,3118.35314456,N,12145.75200943,E,2,09,1.0,30.000,M,-2.801,M,5.0,0129*60
$GPVTG,111,T,,M,5.88,N,10.88,K,D*23
$GPHDT,110.521,T*33
$GPGGA,092911.00,3118.35279492,N,12145.75294636,E,2,09,1.0,30.000,M,-2.801,M,5.0,0129*62
$GPVTG,111,T,,M,5.88,N,10.88,K,D*23
$GPHDT,110.521,T*33
$GPGGA,092911.00,3118.35244527,N,12145.75388329,E,2,09,1.0,30.000,M,-2.801,M,5.0,0129*64
$GPVTG,111,T,,M,5.88,N,10.88,K,D*23
$GPHDT,110.521,T*33
$GPGGA,092911.00,3118.35209563,N,12145.75482022,E,2,09,1.0,30.000,M,-2.801,M,5.0,0129*68
$GPVTG,111,T,,M,5.88,N,10.88,K,D*23
$GPHDT,110.521,T*33
$GPGGA,092911.00,3118.35174598,N,12145.75575715,E,2,09,1.0,30.000,M,-2.801,M,5.0,0129*6F
$GPVTG,111,T,,M,5.88,N,10.88,K,D*23
$GPHDT,110.521,T*33
$GPGGA,092911.00,3118.35139634,N,12145.75669408,E,2,09,1.0,30.000,M,-2.801,M,5.0,0129*62
$GPVTG,111,T,,M,5.88,N,10.88,K,D*23
$GPHDT,110.521,T*33
$GPGGA,092911.00,3118.35104669,N,12145.75763101,E,2,09,1.0,30.000,M,-2.801,M,5.0,0129*63
$GPVTG,111,T,,M,5.88,N,10.88,K,D*23
$GPHDT,110.521,T*33
$GPGGA,092911.00,3118.35069705,N,12145.75856794,E,2,09,1.0,30.000,M,-2.801,M,5.0,0129*61
$GPVTG,111,T,,M,5.88,N,10.88,K,D*23
$GPHDT,110.521,T*33
$GPGGA,092911.00,3118.35034740,N,12145.75950487,E,2,09,1.0,30.000,M,-2.801,M,5.0,0129*6E
$GPVTG,111,T,,M,5.88,N,10.88,K,D*23
$GPHDT,110.521,T*33
$GPGGA,092911.00,3118.34999775,N,12145.76044180,E,2,09,1.0,30.000,M,-2.801,M,5.0,0129*6A
$GPVTG,111,T,,M,5.88,N,10.88,K,D*23
$GPHDT,110.521,T*33
$GPGGA,092911.00,3118.34964811,N,12145.76137873,E,2,09,1.0,30.000,M,-2.801,M,5.0,0129*65
$GPVTG,111,T,,M,5.88,N,10.88,K,D*23
$GPHDT,110.521,T*33
$GPGGA,092911.00,3118.34929846,N,12145.76231566,E,2,09,1.0,30.000,M,-2.801,M,5.0,0129*62
$GPVTG,111,T,,M,5.88,N,10.88,K,D*23
$GPHDT,110.521,T*33
$GPGGA,092911.00,3118.34894882,N,12145.76325259,E,2,09,1.0,30.000,M,-2.801,M,5.0,0129*62
$GPVTG,111,T,,M,5.88,N,10.88,K,D*23
$GPHDT,110.521,T*33
$GPGGA,092911.00,3118.34859917,N,12145.76418952,E,2,09,1.0,30.000,M,-2.801,M,5.0,0129*67
$GPVTG,111,T,,M,5.88,N,10.88,K,D*23
$GPHDT,110.521,T*33
$GPGGA,092911.00,3118.34824953,N,12145.76512645,E,2,09,1.0,30.000,M,-2.801,M,5.0,0129*6F
$GPVTG,111,T,,M,5.88,N,10.88,K,D*23
$GPHDT,110.521,T*33
$GPGGA,092911.00,3118.34789988,N,12145.76606338,E,2,09,1.0,30.000,M,-2.801,M,5.0,0129*68
$GPVTG,111,T,,M,5.88,N,10.88,K,D*23
$GPHDT,110.521,T*33
$GPGGA,092911.00,3118.34755024,N,12145.76700031,E,2,09,1.0,30.000,M,-2.801,M,5.0,0129*6B
$GPVTG,111,T,,M,5.88,N,10.88,K,D*23
$GPHDT,110.521,T*33
$GPGGA,092911.00,3118.34720059,N,12145.76793724,E,2,09,1.0,30.000,M,-2.801,M,5.0,0129*6A
$GPVTG,111,T,,M,5.88,N,10.88,K,D*23
$GPHDT,110.521,T*33
$GPGGA,092911.00,3118.34685094,N,12145.76887417,E,2,09,1.0,30.000,M,-2.801,M,5.0,0129*6C
$GPVTG,111,T,,M,5.88,N,10.88,K,D*23
$GPHDT,110.521,T*33
$GPGGA,092911.00,3118.34650130,N,12145.76981110,E,2,09,1.0,30.000,M,-2.801,M,5.0,0129*6E
$GPVTG,111,T,,M,5.88,N,10.88,K,D*23
$GPHDT,110.521,T*33
$GPGGA,092911.00,3118.34615165,N,12145.77074803,E,2,09,1.0,30.000,M,-2.801,M,5.0,0129*66
$GPVTG,111,T,,M,5.88,N,10.88,K,D*23
$GPHDT,110.521,T*33
$GPGGA,092911.00,3118.34580201,N,12145.77168496,E,2,09,1.0,30.000,M,-2.801,M,5.0,0129*64
$GPVTG,111,T,,M,5.88,N,10.88,K,D*23
$GPHDT,110.521,T*33
$GPGGA,092911.00,3118.34545236,N,12145.77262189,E,2,09,1.0,30.000,M,-2.801,M,5.0,0129*6B
$GPVTG,111,T,,M,5.88,N,10.88,K,D*23
$GPHDT,110.521,T*33
$GPGGA,092911.00,3118.34510272,N,12145.77355882,E,2,09,1.0,30.000,M,-2.801,M,5.0,0129*6C
$GPVTG,111,T,,M,5.88,N,10.88,K,D*23
$GPHDT,110.521,T*33
$GPGGA,092911.00,3118.34475307,N,12145.77449575,E,2,09,1.0,30.000,M,-2.801,M,5.0,0129*62
$GPVTG,111,T,,M,5.88,N,10.88,K,D*23
$GPHDT,110.521,T*33
$GPGGA,092911.00,3118.34440343,N,12145.77543268,E,2,09,1.0,30.000,M,-2.801,M,5.0,0129*64
$GPVTG,111,T,,M,5.88,N,10.88,K,D*23
$GPHDT,110.521,T*33
$GPGGA,092911.00,3118.34405378,N,12145.77636961,E,2,09,1.0,30.000,M,-2.801,M,5.0,0129*6E
$GPVTG,111,T,,M,5.88,N,10.88,K,D*23
$GPHDT,110.521,T*33
$GPGGA,092911.00,3118.34370413,N,12145.77730654,E,2,09,1.0,30.000,M,-2.801,M,5.0,0129*6F
$GPVTG,111,T,,M,5.88,N,10.88,K,D*23
$GPHDT,110.521,T*33
$GPGGA,092911.00,3118.34335449,N,12145.77824347,E,2,09,1.0,30.000,M,-2.801,M,5.0,0129*6C
$GPVTG,111,T,,M,5.88,N,10.88,K,D*23
$GPHDT,110.521,T*33
$GPGGA,092911.00,3118.34300484,N,12145.77918040,E,2,09,1.0,30.000,M,-2.801,M,5.0,0129*61
$GPVTG,111,T,,M,5.88,N,10.88,K,D*23
$GPHDT,110.521,T*33
$GPGGA,092911.00,3118.34265520,N,12145.78011733,E,2,09,1.0,30.000,M,-2.801,M,5.0,0129*60
$GPVTG,111,T,,M,5.88,N,10.88,K,D*23
$GPHDT,110.521,T*33
$GPGGA,092911.00,3118.34230555,N,12145.78105426,E,2,09,1.0,30.000,M,-2.801,M,5.0,0129*61
$GPVTG,111,T,,M,5.88,N,10.88,K,D*23
$GPHDT,110.521,T*33
$GPGGA,092911.00,3118.34195591,N,12145.78199119,E,2,09,1.0,30.000,M,-2.801,M,5.0,0129*69
$GPVTG,111,T,,M,5.88,N,10.88,K,D*23
$GPHDT,110.521,T*33
$GPGGA,092911.00,3118.34160626,N,12145.78292812,E,2,09,1.0,30.000,M,-2.801,M,5.0,0129*66
$GPVTG,111,T,,M,5.88,N,10.88,K,D*23
$GPHDT,110.521,T*33
$GPGGA,092911.00,3118.34125662,N,12145.78386505,E,2,09,1.0,30.000,M,-2.801,M,5.0,0129*68
$GPVTG,111,T,,M,5.88,N,10.88,K,D*23
$GPHDT,110.521,T*33
$GPGGA,092911.00,3118.34090697,N,12145.78480198,E,2,09,1.0,30.000,M,-2.801,M,5.0,0129*6C
$GPVTG,111,T,,M,5.88,N,10.88,K,D*23
$GPHDT,110.521,T*33
$GPGGA,092911.00,3118.34055732,N,12145.78573891,E,2,09,1.0,30.000,M,-2.801,M,5.0,0129*66
$GPVTG,111,T,,M,5.88,N,10.88,K,D*23
$GPHDT,110.521,T*33
$GPGGA,092911.00,3118.34020768,N,12145.78667584,E,2,09,1.0,30.000,M,-2.801,M,5.0,0129*64
$GPVTG,111,T,,M,5.88,N,10.88,K,D*23
$GPHDT,110.521,T*33
$GPGGA,092911.00,3118.33985803,N,12145.78761277,E,2,09,1.0,30.000,M,-2.801,M,5.0,0129*6B
$GPVTG,111,T,,M,5.88,N,10.88,K,D*23
$GPHDT,110.521,T*33
$GPGGA,092911.00,3118.33950839,N,12145.78854970,E,2,09,1.0,30.000,M,-2.801,M,5.0,0129*6F
$GPVTG,111,T,,M,5.88,N,10.88,K,D*23
$GPHDT,110.521,T*33
$GPGGA,092911.00,3118.33915874,N,12145.78948663,E,2,09,1.0,30.000,M,-2.801,M,5.0,0129*66
$GPVTG,111,T,,M,5.88,N,10.88,K,D*23
$GPHDT,110.521,T*33
$GPGGA,092911.00,3118.33880910,N,12145.79042356,E,2,09,1.0,30.000,M,-2.801,M,5.0,0129*69
$GPVTG,111,T,,M,5.88,N,10.88,K,D*23
$GPHDT,110.521,T*33
$GPGGA,092911.00,3118.33845945,N,12145.79136049,E,2,09,1.0,30.000,M,-2.801,M,5.0,0129*6F
$GPVTG,111,T,,M,5.88,N,10.88,K,D*23
$GPHDT,110.521,T*33
$GPGGA,092911.00,3118.33810981,N,12145.79229742,E,2,09,1.0,30.000,M,-2.801,M,5.0,0129*66
$GPVTG,111,T,,M,5.88,N,10.88,K,D*23
$GPHDT,110.521,T*33
$GPGGA,092911.00,3118.33776016,N,12145.79323435,E,2,09,1.0,30.000,M,-2.801,M,5.0,0129*66
$GPVTG,111,T,,M,5.88,N,10.88,K,D*23
$GPHDT,110.521,T*33
$GPGGA,092911.00,3118.33741051,N,12145.79417128,E,2,09,1.0,30.000,M,-2.801,M,5.0,0129*68
$GPVTG,111,T,,M,5.88,N,10.88,K,D*23
$GPHDT,110.521,T*33
$GPGGA,092911.00,3118.33706087,N,12145.79510821,E,2,09,1.0,30.000,M,-2.801,M,5.0,0129*66
$GPVTG,111,T,,M,5.88,N,10.88,K,D*23
$GPHDT,110.521,T*33
$GPGGA,092911.00,3118.33671122,N,12145.79604514,E,2,09,1.0,30.000,M,-2.801,M,5.0,0129*64
$GPVTG,111,T,,M,5.88,N,10.88,K,D*23
$GPHDT,110.521,T*33
$GPGGA,092911.00,3118.33636158,N,12145.79698207,E,2,09,1.0,30.000,M,-2.801,M,5.0,0129*6A
$GPVTG,111,T,,M,5.88,N,10.88,K,D*23
$GPHDT,110.521,T*33
$GPGGA,092911.00,3118.33601193,N,12145.79791900,E,2,09,1.0,30.000,M,-2.801,M,5.0,0129*6D
$GPVTG,111,T,,M,5.88,N,10.88,K,D*23
$GPHDT,110.521,T*33
$GPGGA,092911.00,3118.33566229,N,12145.79885593,E,2,09,1.0,30.000,M,-2.801,M,5.0,0129*61
$GPVTG,111,T,,M,5.88,N,10.88,K,D*23
$GPHDT,110.521,T*33
$GPGGA,092911.00,3118.33531264,N,12145.79979286,E,2,09,1.0,30.000,M,-2.801,M,5.0,0129*6B
$GPVTG,111,T,,M,5.88,N,10.88,K,D*23
$GPHDT,110.521,T*33
$GPGGA,092911.00,3118.33496300,N,12145.80072979,E,2,09,1.0,30.000,M,-2.801,M,5.0,0129*6B
$GPVTG,111,T,,M,5.88,N,10.88,K,D*23
$GPHDT,110.521,T*33
$GPGGA,092911.00,3118.33461335,N,12145.80166672,E,2,09,1.0,30.000,M,-2.801,M,5.0,0129*65
$GPVTG,111,T,,M,5.88,N,10.88,K,D*23
$GPHDT,110.521,T*33
$GPGGA,092911.00,3118.33426370,N,12145.80260365,E,2,09,1.0,30.000,M,-2.801,M,5.0,0129*61
$GPVTG,111,T,,M,5.88,N,10.88,K,D*23
$GPHDT,110.521,T*33
$GPGGA,092911.00,3118.33391406,N,12145.80354058,E,2,09,1.0,30.000,M,-2.801,M,5.0,0129*67
$GPVTG,111,T,,M,5.88,N,10.88,K,D*23
$GPHDT,110.521,T*33
$GPGGA,092911.00,3118.33356441,N,12145.80447751,E,2,09,1.0,30.000,M,-2.801,M,5.0,0129*64
$GPVTG,111,T,,M,5.88,N,10.88,K,D*23
$GPHDT,110.521,T*33
$GPGGA,092911.00,3118.33321477,N,12145.80541444,E,2,09,1.0,30.000,M,-2.801,M,5.0,0129*61
$GPVTG,111,T,,M,5.88,N,10.88,K,D*23
$GPHDT,110.521,T*33
$GPGGA,092911.00,3118.33286512,N,12145.80635137,E,2,09,1.0,30.000,M,-2.801,M,5.0,0129*6E
$GPVTG,111,T,,M,5.88,N,10.88,K,D*23
$GPHDT,110.521,T*33
$GPGGA,092911.00,3118.33251548,N,12145.80728830,E,2,09,1.0,30.000,M,-2.801,M,5.0,0129*68
$GPVTG,111,T,,M,5.88,N,10.88,K,D*23
$GPHDT,110.521,T*33
$GPGGA,092911.00,3118.33216583,N,12145.80822523,E,2,09,1.0,30.000,M,-2.801,M,5.0,0129*66
$GPVTG,111,T,,M,5.88,N,10.88,K,D*23
$GPHDT,110.521,T*33
$GPGGA,092911.00,3118.33181619,N,12145.80916216,E,2,09,1.0,30.000,M,-2.801,M,5.0,0129*6C
$GPVTG,111,T,,M,5.88,N,10.88,K,D*23
$GPHDT,110.521,T*33
$GPGGA,092911.00,3118.33146654,N,12145.81009909,E,2,09,1.0,30.000,M,-2.801,M,5.0,0129*6D
$GPVTG,111,T,,M,5.88,N,10.88,K,D*23
$GPHDT,110.521,T*33
$GPGGA,092911.00,3118.33111689,N,12145.81103602,E,2,09,1.0,30.000,M,-2.801,M,5.0,0129*60
$GPVTG,111,T,,M,5.88,N,10.88,K,D*23
$GPHDT,110.521,T*33
$GPGGA,092911.00,3118.33076725,N,12145.81197295,E,2,09,1.0,30.000,M,-2.801,M,5.0,0129*60
$GPVTG,111,T,,M,5.88,N,10.88,K,D*23
$GPHDT,110.521,T*33
$GPGGA,092911.00,3118.33041760,N,12145.81290988,E,2,09,1.0,30.000,M,-2.801,M,5.0,0129*66
$GPVTG,111,T,,M,5.88,N,10.88,K,D*23
$GPHDT,110.521,T*33
$GPGGA,092911.00,3118.33006796,N,12145.81384681,E,2,09,1.0,30.000,M,-2.801,M,5.0,0129*6E
$GPVTG,111,T,,M,5.88,N,10.88,K,D*23
$GPHDT,110.521,T*33
$GPGGA,092911.00,3118.32971831,N,12145.81478374,E,2,09,1.0,30.000,M,-2.801,M,5.0,0129*6F
$GPVTG,111,T,,M,5.88,N,10.88,K,D*23
$GPHDT,110.521,T*33
$GPGGA,092911.00,3118.32936867,N,12145.81572067,E,2,09,1.0,30.000,M,-2.801,M,5.0,0129*65
$GPVTG,111,T,,M,5.88,N,10.88,K,D*23
$GPHDT,110.521,T*33
$GPGGA,092911.00,3118.32901902,N,12145.81665761,E,2,09,1.0,30.000,M,-2.801,M,5.0,0129*67
$GPVTG,111,T,,M,5.88,N,10.88,K,D*23
$GPHDT,110.521,T*33
$GPGGA,092911.00,3118.32866938,N,12145.81759454,E,2,09,1.0,30.000,M,-2.801,M,5.0,0129*65
$GPVTG,111,T,,M,5.88,N,10.88,K,D*23
$GPHDT,110.521,T*33
$GPGGA,092911.00,3118.32831973,N,12145.81853147,E,2,09,1.0,30.000,M,-2.801,M,5.0,0129*6A
$GPVTG,111,T,,M,5.88,N,10.88,K,D*23
$GPHDT,110.521,T*33
$GPGGA,092911.00,3118.32797008,N,12145.81946840,E,2,09,1.0,30.000,M,-2.801,M,5.0,0129*67
$GPVTG,111,T,,M,5.88,N,10.88,K,D*23
$GPHDT,110.521,T*33
$GPGGA,092911.00,3118.32762044,N,12145.82040533,E,2,09,1.0,30.000,M,-2.801,M,5.0,0129*60
$GPVTG,111,T,,M,5.88,N,10.88,K,D*23
$GPHDT,110.521,T*33
$GPGGA,092911.00,3118.32727079,N,12145.82134226,E,2,09,1.0,30.000,M,-2.801,M,5.0,0129*6E
$GPVTG,111,T,,M,5.88,N,10.88,K,D*23
$GPHDT,110.521,T*33
$GPGGA,092911.00,3118.32692115,N,12145.82227919,E,2,09,1.0,30.000,M,-2.801,M,5.0,0129*6C
$GPVTG,111,T,,M,5.88,N,10.88,K,D*23
$GPHDT,110.521,T*33
$GPGGA,092911.00,3118.32657150,N,12145.82321612,E,2,09,1.0,30.000,M,-2.801,M,5.0,0129*67
$GPVTG,111,T,,M,5.88,N,10.88,K,D*23
$GPHDT,110.521,T*33
$GPGGA,092911.00,3118.32622186,N,12145.82415305,E,2,09,1.0,30.000,M,-2.801,M,5.0,0129*6D
$GPVTG,111,T,,M,5.88,N,10.88,K,D*23
$GPHDT,110.521,T*33
$GPGGA,092911.00,3118.32587221,N,12145.82508998,E,2,09,1.0,30.000,M,-2.801,M,5.0,0129*6C
$GPVTG,111,T,,M,5.88,N,10.88,K,D*23
$GPHDT,110.521,T*33
$GPGGA,092911.00,3118.32552257,N,12145.82602691,E,2,09,1.0,30.000,M,-2.801,M,5.0,0129*6A
$GPVTG,111,T,,M,5.88,N,10.88,K,D*23
$GPHDT,110.521,T*33
$GPGGA,092911.00,3118.32517292,N,12145.82696384,E,2,09,1.0,30.000,M,-2.801,M,5.0,0129*6E
$GPVTG,111,T,,M,5.88,N,10.88,K,D*23
$GPHDT,110.521,T*33
$GPGGA,092911.00,3118.32482328,N,12145.82790077,E,2,09,1.0,30.000,M,-2.801,M,5.0,0129*6B
$GPVTG,111,T,,M,5.88,N,10.88,K,D*23
$GPHDT,110.521,T*33
$GPGGA,092911.00,3118.32447363,N,12145.82883770,E,2,09,1.0,30.000,M,-2.801,M,5.0,0129*60
$GPVTG,111,T,,M,5.88,N,10.88,K,D*23
$GPHDT,110.521,T*33
$GPGGA,092911.00,3118.32412398,N,12145.82977463,E,2,09,1.0,30.000,M,-2.801,M,5.0,0129*6F
$GPVTG,111,T,,M,5.88,N,10.88,K,D*23
$GPHDT,110.521,T*33
$GPGGA,092911.00,3118.32377434,N,12145.83071156,E,2,09,1.0,30.000,M,-2.801,M,5.0,0129*67
$GPVTG,111,T,,M,5.88,N,10.88,K,D*23
$GPHDT,110.521,T*33
$GPGGA,092911.00,3118.32342469,N,12145.83164849,E,2,09,1.0,30.000,M,-2.801,M,5.0,0129*6B
$GPVTG,111,T,,M,5.88,N,10.88,K,D*23
$GPHDT,110.521,T*33
$GPGGA,092911.00,3118.32307505,N,12145.83258542,E,2,09,1.0,30.000,M,-2.801,M,5.0,0129*6B
$GPVTG,111,T,,M,5.88,N,10.88,K,D*23
$GPHDT,110.521,T*33
$GPGGA,092911.00,3118.32272540,N,12145.83352235,E,2,09,1.0,30.000,M,-2.801,M,5.0,0129*65
$GPVTG,111,T,,M,5.88,N,10.88,K,D*23
$GPHDT,110.521,T*33
$GPGGA,092911.00,3118.32237576,N,12145.83445928,E,2,09,1.0,30.000,M,-2.801,M,5.0,0129*67
$GPVTG,111,T,,M,5.88,N,10.88,K,D*23
$GPHDT,110.521,T*33
$GPGGA,092911.00,3118.32202611,N,12145.83539621,E,2,09,1.0,30.000,M,-2.801,M,5.0,0129*6F
$GPVTG,111,T,,M,5.88,N,10.88,K,D*23
$GPHDT,110.521,T*33
$GPGGA,092911.00,3118.32167647,N,12145.83633314,E,2,09,1.0,30.000,M,-2.801,M,5.0,0129*66
$GPVTG,111,T,,M,5.88,N,10.88,K,D*23
$GPHDT,110.521,T*33
$GPGGA,092911.00,3118.32132682,N,12145.83727007,E,2,09,1.0,30.000,M,-2.801,M,5.0,0129*6A
$GPVTG,111,T,,M,5.88,N,10.88,K,D*23
$GPHDT,110.521,T*33
$GPGGA,092911.00,3118.32097717,N,12145.83820700,E,2,09,1.0,30.000,M,-2.801,M,5.0,0129*61
$GPVTG,111,T,,M,5.88,N,10.88,K,D*23
$GPHDT,110.521,T*33
$GPGGA,092911.00,3118.32062753,N,12145.83914393,E,2,09,1.0,30.000,M,-2.801,M,5.0,0129*63
$GPVTG,111,T,,M,5.88,N,10.88,K,D*23
$GPHDT,110.521,T*33
$GPGGA,092911.00,3118.32027788,N,12145.84008086,E,2,09,1.0,30.000,M,-2.801,M,5.0,0129*60
$GPVTG,111,T,,M,5.88,N,10.88,K,D*23
$GPHDT,110.521,T*33
$GPGGA,092911.00,3118.31992824,N,12145.84101779,E,2,09,1.0,30.000,M,-2.801,M,5.0,0129*62
$GPVTG,111,T,,M,5.88,N,10.88,K,D*23
$GPHDT,110.521,T*33
$GPGGA,092911.00,3118.31957859,N,12145.84195472,E,2,09,1.0,30.000,M,-2.801,M,5.0,0129*64
$GPVTG,111,T,,M,5.88,N,10.88,K,D*23
$GPHDT,110.521,T*33
$GPGGA,092911.00,3118.31922895,N,12145.84289165,E,2,09,1.0,30.000,M,-2.801,M,5.0,0129*6B
$GPVTG,111,T,,M,5.88,N,10.88,K,D*23
$GPHDT,110.521,T*33
$GPGGA,092911.00,3118.31887930,N,12145.84382858,E,2,09,1.0,30.000,M,-2.801,M,5.0,0129*66
$GPVTG,111,T,,M,5.88,N,10.88,K,D*23
$GPHDT,110.521,T*33
$GPGGA,092911.00,3118.31852966,N,12145.84476551,E,2,09,1.0,30.000,M,-2.801,M,5.0,0129*65
$GPVTG,111,T,,M,5.88,N,10.88,K,D*23
$GPHDT,110.521,T*33
$GPGGA,092911.00,3118.31818001,N,12145.84570244,E,2,09,1.0,30.000,M,-2.801,M,5.0,0129*67
$GPVTG,111,T,,M,5.88,N,10.88,K,D*23
$GPHDT,110.521,T*33
$GPGGA,092911.00,3118.31783036,N,12145.84663937,E,2,09,1.0,30.000,M,-2.801,M,5.0,0129*60
$GPVTG,111,T,,M,5.88,N,10.88,K,D*23
$GPHDT,110.521,T*33
$GPGGA,092911.00,3118.31748072,N,12145.84757630,E,2,09,1.0,30.000,M,-2.801,M,5.0,0129*69
$GPVTG,111,T,,M,5.88,N,10.88,K,D*23
$GPHDT,110.521,T*33
$GPGGA,092911.00,3118.31713107,N,12145.84851323,E,2,09,1.0,30.000,M,-2.801,M,5.0,0129*6A
$GPVTG,111,T,,M,5.88,N,10.88,K,D*23
$GPHDT,110.521,T*33
$GPGGA,092911.00,3118.31678143,N,12145.84945016,E,2,09,1.0,30.000,M,-2.801,M,5.0,0129*67
$GPVTG,111,T,,M,5.88,N,10.88,K,D*23
$GPHDT,110.521,T*33
$GPGGA,092911.00,3118.31643178,N,12145.85038709,E,2,09,1.0,30.000,M,-2.801,M,5.0,0129*6C
$GPVTG,111,T,,M,5.88,N,10.88,K,D*23
$GPHDT,110.521,T*33
$GPGGA,092911.00,3118.31608214,N,12145.85132402,E,2,09,1.0,30.000,M,-2.801,M,5.0,0129*69
$GPVTG,111,T,,M,5.88,N,10.88,K,D*23
$GPHDT,110.521,T*33
$GPGGA,092911.00,3118.31573249,N,12145.85226095,E,2,09,1.0,30.000,M,-2.801,M,5.0,0129*62
$GPVTG,111,T,,M,5.88,N,10.88,K,D*23
$GPHDT,110.521,T*33
$GPGGA,092911.00,3118.31538285,N,12145.85319788,E,2,09,1.0,30.000,M,-2.801,M,5.0,0129*6B
$GPVTG,111,T,,M,5.88,N,10.88,K,D*23
$GPHDT,110.521,T*33
$GPGGA,092911.00,3118.31503320,N,12145.85413481,E,2,09,1.0,30.000,M,-2.801,M,5.0,0129*6A
$GPVTG,111,T,,M,5.88,N,10.88,K,D*23
$GPHDT,110.521,T*33
$GPGGA,092911.00,3118.31468355,N,12145.85507174,E,2,09,1.0,30.000,M,-2.801,M,5.0,0129*6F
$GPVTG,111,T,,M,5.88,N,10.88,K,D*23
$GPHDT,110.521,T*33
$GPGGA,092911.00,3118.31433391,N,12145.85600867,E,2,09,1.0,30.000,M,-2.801,M,5.0,0129*66
$GPVTG,111,T,,M,5.88,N,10.88,K,D*23
$GPHDT,110.521,T*33
$GPGGA,092911.00,3118.31398426,N,12145.85694560,E,2,09,1.0,30.000,M,-2.801,M,5.0,0129*6C
$GPVTG,111,T,,M,5.88,N,10.88,K,D*23
$GPHDT,110.521,T*33
$GPGGA,092911.00,3118.31363462,N,12145.85788253,E,2,09,1.0,30.000,M,-2.801,M,5.0,0129*63
$GPVTG,111,T,,M,5.88,N,10.88,K,D*23
$GPHDT,110.521,T*33
$GPGGA,092911.00,3118.31328497,N,12145.85881946,E,2,09,1.0,30.000,M,-2.801,M,5.0,0129*6F
$GPVTG,111,T,,M,5.88,N,10.88,K,D*23
$GPHDT,110.521,T*33
$GPGGA,092911.00,3118.31293533,N,12145.85975639,E,2,09,1.0,30.000,M,-2.801,M,5.0,0129*6C
$GPVTG,111,T,,M,5.88,N,10.88,K,D*23
$GPHDT,110.521,T*33
$GPGGA,092911.00,3118.31258568,N,12145.86069332,E,2,09,1.0,30.000,M,-2.801,M,5.0,0129*6C
$GPVTG,111,T,,M,5.88,N,10.88,K,D*23
$GPHDT,110.521,T*33
$GPGGA,092911.00,3118.31223604,N,12145.86163025,E,2,09,1.0,30.000,M,-2.801,M,5.0,0129*67
$GPVTG,111,T,,M,5.88,N,10.88,K,D*23
$GPHDT,110.521,T*33
$GPGGA,092911.00,3118.31188639,N,12145.86256718,E,2,09,1.0,30.000,M,-2.801,M,5.0,0129*67
$GPVTG,111,T,,M,5.88,N,10.88,K,D*23
$GPHDT,110.521,T*33
$GPGGA,092911.00,3118.31153674,N,12145.86350411,E,2,09,1.0,30.000,M,-2.801,M,5.0,0129*65
$GPVTG,111,T,,M,5.88,N,10.88,K,D*23
$GPHDT,110.521,T*33
$GPGGA,092911.00,3118.31118710,N,12145.86444104,E,2,09,1.0,30.000,M,-2.801,M,5.0,0129*6A
$GPVTG,111,T,,M,5.88,N,10.88,K,D*23
$GPHDT,110.521,T*33
$GPGGA,092911.00,3118.31083745,N,12145.86537797,E,2,09,1.0,30.000,M,-2.801,M,5.0,0129*60
$GPVTG,111,T,,M,5.88,N,10.88,K,D*23
$GPHDT,110.521,T*33
$GPGGA,092911.00,3118.31048781,N,12145.86631490,E,2,09,1.0,30.000,M,-2.801,M,5.0,0129*6E
$GPVTG,111,T,,M,5.88,N,10.88,K,D*23
$GPHDT,110.521,T*33
$GPGGA,092911.00,3118.31013816,N,12145.86725183,E,2,09,1.0,30.000,M,-2.801,M,5.0,0129*62
$GPVTG,111,T,,M,5.88,N,10.88,K,D*23
$GPHDT,110.521,T*33
$GPGGA,092911.00,3118.30978852,N,12145.86818876,E,2,09,1.0,30.000,M,-2.801,M,5.0,0129*65
$GPVTG,111,T,,M,5.88,N,10.88,K,D*23
$GPHDT,110.521,T*33
$GPGGA,092911.00,3118.30943887,N,12145.86912569,E,2,09,1.0,30.000,M,-2.801,M,5.0,0129*6D
$GPVTG,111,T,,M,5.88,N,10.88,K,D*23
$GPHDT,110.521,T*33
$GPGGA,092911.00,3118.30908923,N,12145.87006262,E,2,09,1.0,30.000,M,-2.801,M,5.0,0129*6C
$GPVTG,111,T,,M,5.88,N,10.88,K,D*23
$GPHDT,110.521,T*33
$GPGGA,092911.00,3118.30873958,N,12145.87099955,E,2,09,1.0,30.000,M,-2.801,M,5.0,0129*64
$GPVTG,111,T,,M,5.88,N,10.88,K,D*23
$GPHDT,110.521,T*33
$GPGGA,092911.00,3118.30838993,N,12145.87193648,E,2,09,1.0,30.000,M,-2.801,M,5.0,0129*64
$GPVTG,111,T,,M,5.88,N,10.88,K,D*23
$GPHDT,110.521,T*33
$GPGGA,092911.00,3118.30804029,N,12145.87287341,E,2,09,1.0,30.000,M,-2.801,M,5.0,0129*69
$GPVTG,111,T,,M,5.88,N,10.88,K,D*23
$GPHDT,110.521,T*33
$GPGGA,092911.00,3118.30769064,N,12145.87381034,E,2,09,1.0,30.000,M,-2.801,M,5.0,0129*62
$GPVTG,111,T,,M,5.88,N,10.88,K,D*23
$GPHDT,110.521,T*33
$GPGGA,092911.00,3118.30734100,N,12145.87474727,E,2,09,1.0,30.000,M,-2.801,M,5.0,0129*61
$GPVTG,111,T,,M,5.88,N,10.88,K,D*23
$GPHDT,110.521,T*33
$GPGGA,092911.00,3118.30699135,N,12145.87568420,E,2,09,1.0,30.000,M,-2.801,M,5.0,0129*69
$GPVTG,111,T,,M,5.88,N,10.88,K,D*23
$GPHDT,110.521,T*33
$GPGGA,092911.00,3118.30664171,N,12145.87662113,E,2,09,1.0,30.000,M,-2.801,M,5.0,0129*67
$GPVTG,111,T,,M,5.88,N,10.88,K,D*23
$GPHDT,110.521,T*33
$GPGGA,092911.00,3118.30629206,N,12145.87755806,E,2,09,1.0,30.000,M,-2.801,M,5.0,0129*65
$GPVTG,111,T,,M,5.88,N,10.88,K,D*23
$GPHDT,110.521,T*33
$GPGGA,092911.00,3118.30594242,N,12145.87849499,E,2,09,1.0,30.000,M,-2.801,M,5.0,0129*68
$GPVTG,111,T,,M,5.88,N,10.88,K,D*23
$GPHDT,110.521,T*33
$GPGGA,092911.00,3118.30559277,N,12145.87943192,E,2,09,1.0,30.000,M,-2.801,M,5.0,0129*6A
$GPVTG,111,T,,M,5.88,N,10.88,K,D*23
$GPHDT,110.521,T*33
$GPGGA,092911.00,3118.30524312,N,12145.88036885,E,2,09,1.0,30.000,M,-2.801,M,5.0,0129*69
$GPVTG,111,T,,M,5.88,N,10.88,K,D*23
$GPHDT,110.521,T*33
$GPGGA,092911.00,3118.30489348,N,12145.88130578,E,2,09,1.0,30.000,M,-2.801,M,5.0,0129*68
$GPVTG,111,T,,M,5.88,N,10.88,K,D*23
$GPHDT,110.521,T*33
$GPGGA,092911.00,3118.30454383,N,12145.88224271,E,2,09,1.0,30.000,M,-2.801,M,5.0,0129*67
$GPVTG,111,T,,M,5.88,N,10.88,K,D*23
$GPHDT,110.521,T*33
$GPGGA,092911.00,3118.30419419,N,12145.88317964,E,2,09,1.0,30.000,M,-2.801,M,5.0,0129*64
$GPVTG,111,T,,M,5.88,N,10.88,K,D*23
$GPHDT,110.521,T*33
$GPGGA,092911.00,3118.30384454,N,12145.88411657,E,2,09,1.0,30.000,M,-2.801,M,5.0,0129*60
$GPVTG,111,T,,M,5.88,N,10.88,K,D*23
$GPHDT,110.521,T*33
$GPGGA,092911.00,3118.30349490,N,12145.88505350,E,2,09,1.0,30.000,M,-2.801,M,5.0,0129*6F
$GPVTG,111,T,,M,5.88,N,10.88,K,D*23
$GPHDT,110.521,T*33
$GPGGA,092911.00,3118.30314525,N,12145.88599043,E,2,09,1.0,30.000,M,-2.801,M,5.0,0129*6C
$GPVTG,111,T,,M,5.88,N,10.88,K,D*23
$GPHDT,110.521,T*33
$GPGGA,092911.00,3118.30279561,N,12145.88692736,E,2,09,1.0,30.000,M,-2.801,M,5.0,0129*6B
$GPVTG,111,T,,M,5.88,N,10.88,K,D*23
$GPHDT,110.521,T*33
$GPGGA,092911.00,3118.30244596,N,12145.88786429,E,2,09,1.0,30.000,M,-2.801,M,5.0,0129*64
$GPVTG,111,T,,M,5.88,N,10.88,K,D*23
$GPHDT,110.521,T*33
$GPGGA,092911.00,3118.30209631,N,12145.88880122,E,2,09,1.0,30.000,M,-2.801,M,5.0,0129*64
$GPVTG,111,T,,M,5.88,N,10.88,K,D*23
$GPHDT,110.521,T*33
$GPGGA,092911.00,3118.30174667,N,12145.88973815,E,2,09,1.0,30.000,M,-2.801,M,5.0,0129*6E
$GPVTG,111,T,,M,5.88,N,10.88,K,D*23
$GPHDT,110.521,T*33
$GPGGA,092911.00,3118.30139702,N,12145.89067508,E,2,09,1.0,30.000,M,-2.801,M,5.0,0129*69
$GPVTG,111,T,,M,5.88,N,10.88,K,D*23
$GPHDT,110.521,T*33
$GPGGA,092911.00,3118.30104738,N,12145.89161202,E,2,09,1.0,30.000,M,-2.801,M,5.0,0129*64
$GPVTG,111,T,,M,5.88,N,10.88,K,D*23
$GPHDT,110.521,T*33
$GPGGA,092911.00,3118.30069773,N,12145.89254895,E,2,09,1.0,30.000,M,-2.801,M,5.0,0129*60
$GPVTG,111,T,,M,5.88,N,10.88,K,D*23
$GPHDT,110.521,T*33
$GPGGA,092911.00,3118.30034809,N,12145.89348588,E,2,09,1.0,30.000,M,-2.801,M,5.0,0129*67
$GPVTG,111,T,,M,5.88,N,10.88,K,D*23
$GPHDT,110.521,T*33
$GPGGA,092911.00,3118.29999844,N,12145.89442281,E,2,09,1.0,30.000,M,-2.801,M,5.0,0129*6B
$GPVTG,111,T,,M,5.88,N,10.88,K,D*23
$GPHDT,110.521,T*33
$GPGGA,092911.00,3118.29964880,N,12145.89535974,E,2,09,1.0,30.000,M,-2.801,M,5.0,0129*61
$GPVTG,111,T,,M,5.88,N,10.88,K,D*23
$GPHDT,110.521,T*33
$GPGGA,092911.00,3118.29929915,N,12145.89629667,E,2,09,1.0,30.000,M,-2.801,M,5.0,0129*66
$GPVTG,111,T,,M,5.88,N,10.88,K,D*23
$GPHDT,110.521,T*33
$GPGGA,092911.00,3118.29894951,N,12145.89723360,E,2,09,1.0,30.000,M,-2.801,M,5.0,0129*68
$GPVTG,111,T,,M,5.88,N,10.88,K,D*23
$GPHDT,110.521,T*33
$GPGGA,092911.00,3118.29859986,N,12145.89817053,E,2,09,1.0,30.000,M,-2.801,M,5.0,0129*68
$GPVTG,111,T,,M,5.88,N,10.88,K,D*23
$GPHDT,110.521,T*33
$GPGGA,092911.00,3118.29825021,N,12145.89910746,E,2,09,1.0,30.000,M,-2.801,M,5.0,0129*62
$GPVTG,111,T,,M,5.88,N,10.88,K,D*23
$GPHDT,110.521,T*33
$GPGGA,092911.00,3118.29790057,N,12145.90004439,E,2,09,1.0,30.000,M,-2.801,M,5.0,0129*6D
$GPVTG,111,T,,M,5.88,N,10.88,K,D*23
$GPHDT,110.521,T*33
$GPGGA,092911.00,3118.29755092,N,12145.90098132,E,2,09,1.0,30.000,M,-2.801,M,5.0,0129*66
$GPVTG,111,T,,M,5.88,N,10.88,K,D*23
$GPHDT,110.521,T*33
$GPGGA,092911.00,3118.29720128,N,12145.90191825,E,2,09,1.0,30.000,M,-2.801,M,5.0,0129*63
$GPVTG,111,T,,M,5.88,N,10.88,K,D*23
$GPHDT,110.521,T*33
$GPGGA,092911.00,3118.29685163,N,12145.90285518,E,2,09,1.0,30.000,M,-2.801,M,5.0,0129*67
$GPVTG,111,T,,M,5.88,N,10.88,K,D*23
$GPHDT,110.521,T*33
$GPGGA,092911.00,3118.29650199,N,12145.90379211,E,2,09,1.0,30.000,M,-2.801,M,5.0,0129*66
$GPVTG,111,T,,M,5.88,N,10.88,K,D*23
$GPHDT,110.521,T*33
$GPGGA,092911.00,3118.29615234,N,12145.90472904,E,2,09,1.0,30.000,M,-2.801,M,5.0,0129*60
$GPVTG,111,T,,M,5.88,N,10.88,K,D*23
$GPHDT,110.521,T*33
$GPGGA,092911.00,3118.29580270,N,12145.90566597,E,2,09,1.0,30.000,M,-2.801,M,5.0,0129*6D
$GPVTG,111,T,,M,5.88,N,10.88,K,D*23
$GPHDT,110.521,T*33
$GPGGA,092911.00,3118.29545305,N,12145.90660290,E,2,09,1.0,30.000,M,-2.801,M,5.0,0129*62
$GPVTG,111,T,,M,5.88,N,10.88,K,D*23
$GPHDT,110.521,T*33
$GPGGA,092911.00,3118.29510340,N,12145.90753983,E,2,09,1.0,30.000,M,-2.801,M,5.0,0129*6B
$GPVTG,111,T,,M,5.88,N,10.88,K,D*23
$GPHDT,110.521,T*33
$GPGGA,092911.00,3118.29475376,N,12145.90847676,E,2,09,1.0,30.000,M,-2.801,M,5.0,0129*63
$GPVTG,111,T,,M,5.88,N,10.88,K,D*23
$GPHDT,110.521,T*33
$GPGGA,092911.00,3118.29440411,N,12145.90941369,E,2,09,1.0,30.000,M,-2.801,M,5.0,0129*6F
$GPVTG,111,T,,M,5.88,N,10.88,K,D*23
$GPHDT,110.521,T*33
$GPGGA,092911.00,3118.29405447,N,12145.91035062,E,2,09,1.0,30.000,M,-2.801,M,5.0,0129*6E
$GPVTG,111,T,,M,5.88,N,10.88,K,D*23
$GPHDT,110.521,T*33
$GPGGA,092911.00,3118.29370482,N,12145.91128755,E,2,09,1.0,30.000,M,-2.801,M,5.0,0129*6C
$GPVTG,111,T,,M,5.88,N,10.88,K,D*23
$GPHDT,110.521,T*33
$GPGGA,092911.00,3118.29335518,N,12145.91222448,E,2,09,1.0,30.000,M,-2.801,M,5.0,0129*69
$GPVTG,111,T,,M,5.88,N,10.88,K,D*23
$GPHDT,110.521,T*33
$GPGGA,092911.00,3118.29300553,N,12145.91316141,E,2,09,1.0,30.000,M,-2.801,M,5.0,0129*6A
$GPVTG,111,T,,M,5.88,N,10.88,K,D*23
$GPHDT,110.521,T*33
$GPGGA,092911.00,3118.29265589,N,12145.91409834,E,2,09,1.0,30.000,M,-2.801,M,5.0,0129*6D
$GPVTG,111,T,,M,5.88,N,10.88,K,D*23
$GPHDT,110.521,T*33
$GPGGA,092911.00,3118.29230624,N,12145.91503527,E,2,09,1.0,30.000,M,-2.801,M,5.0,0129*6D
$GPVTG,111,T,,M,5.88,N,10.88,K,D*23
$GPHDT,110.521,T*33
$GPGGA,092911.00,3118.29195659,N,12145.91597220,E,2,09,1.0,30.000,M,-2.801,M,5.0,0129*66
$GPVTG,111,T,,M,5.88,N,10.88,K,D*23
$GPHDT,110.521,T*33
$GPGGA,092911.00,3118.29160695,N,12145.91690913,E,2,09,1.0,30.000,M,-2.801,M,5.0,0129*63
$GPVTG,111,T,,M,5.88,N,10.88,K,D*23
$GPHDT,110.521,T*33
$GPGGA,092911.00,3118.29125730,N,12145.91784606,E,2,09,1.0,30.000,M,-2.801,M,5.0,0129*63
$GPVTG,111,T,,M,5.88,N,10.88,K,D*23
$GPHDT,110.521,T*33
$GPGGA,092911.00,3118.29090766,N,12145.91878299,E,2,09,1.0,30.000,M,-2.801,M,5.0,0129*61
$GPVTG,111,T,,M,5.88,N,10.88,K,D*23
$GPHDT,110.521,T*33
$GPGGA,092911.00,3118.29055801,N,12145.91971992,E,2,09,1.0,30.000,M,-2.801,M,5.0,0129*6E
$GPVTG,111,T,,M,5.88,N,10.88,K,D*23
$GPHDT,110.521,T*33
$GPGGA,092911.00,3118.29020837,N,12145.92065685,E,2,09,1.0,30.000,M,-2.801,M,5.0,0129*6F
$GPVTG,111,T,,M,5.88,N,10.88,K,D*23
$GPHDT,110.521,T*33
$GPGGA,092911.00,3118.28985872,N,12145.92159378,E,2,09,1.0,30.000,M,-2.801,M,5.0,0129*60
$GPVTG,111,T,,M,5.88,N,10.88,K,D*23
$GPHDT,110.521,T*33
$GPGGA,092911.00,3118.28950908,N,12145.92253071,E,2,09,1.0,30.000,M,-2.801,M,5.0,0129*67
$GPVTG,111,T,,M,5.88,N,10.88,K,D*23
$GPHDT,110.521,T*33
$GPGGA,092911.00,3118.28915943,N,12145.92346764,E,2,09,1.0,30.000,M,-2.801,M,5.0,0129*6F
$GPVTG,111,T,,M,5.88,N,10.88,K,D*23
$GPHDT,110.521,T*33
$GPGGA,092911.00,3118.28880978,N,12145.92440457,E,2,09,1.0,30.000,M,-2.801,M,5.0,0129*68
$GPVTG,111,T,,M,5.88,N,10.88,K,D*23
$GPHDT,110.521,T*33
$GPGGA,092911.00,3118.28846014,N,12145.92534150,E,2,09,1.0,30.000,M,-2.801,M,5.0,0129*61
$GPVTG,111,T,,M,5.88,N,10.88,K,D*23
$GPHDT,110.521,T*33
$GPGGA,092911.00,3118.28811049,N,12145.92627843,E,2,09,1.0,30.000,M,-2.801,M,5.0,0129*61
$GPVTG,111,T,,M,5.88,N,10.88,K,D*23
$GPHDT,110.521,T*33
$GPGGA,092911.00,3118.28776085,N,12145.92721536,E,2,09,1.0,30.000,M,-2.801,M,5.0,0129*67
$GPVTG,111,T,,M,5.88,N,10.88,K,D*23
$GPHDT,110.521,T*33
$GPGGA,092911.00,3118.28741120,N,12145.92815229,E,2,09,1.0,30.000,M,-2.801,M,5.0,0129*6C
$GPVTG,111,T,,M,5.88,N,10.88,K,D*23
$GPHDT,110.521,T*33
$GPGGA,092911.00,3118.28706156,N,12145.92908922,E,2,09,1.0,30.000,M,-2.801,M,5.0,0129*63
$GPVTG,111,T,,M,5.88,N,10.88,K,D*23
$GPHDT,110.521,T*33
$GPGGA,092911.00,3118.28671191,N,12145.93002615,E,2,09,1.0,30.000,M,-2.801,M,5.0,0129*60
$GPVTG,111,T,,M,5.88,N,10.88,K,D*23
$GPHDT,110.521,T*33
$GPGGA,092911.00,3118.28636227,N,12145.93096308,E,2,09,1.0,30.000,M,-2.801,M,5.0,0129*69
$GPVTG,111,T,,M,5.88,N,10.88,K,D*23
$GPHDT,110.521,T*33
$GPGGA,092911.00,3118.28601262,N,12145.93190001,E,2,09,1.0,30.000,M,-2.801,M,5.0,0129*61
$GPVTG,111,T,,M,5.88,N,10.88,K,D*23
$GPHDT,110.521,T*33
$GPGGA,092911.00,3118.28566297,N,12145.93283694,E,2,09,1.0,30.000,M,-2.801,M,5.0,0129*62
$GPVTG,111,T,,M,5.88,N,10.88,K,D*23
$GPHDT,110.521,T*33
$GPGGA,092911.00,3118.28531333,N,12145.93377387,E,2,09,1.0,30.000,M,-2.801,M,5.0,0129*62
$GPVTG,111,T,,M,5.88,N,10.88,K,D*23
$GPHDT,110.521,T*33
$GPGGA,092911.00,3118.28496368,N,12145.93471080,E,2,09,1.0,30.000,M,-2.801,M,5.0,0129*65
$GPVTG,111,T,,M,5.88,N,10.88,K,D*23
$GPHDT,110.521,T*33
$GPGGA,092911.00,3118.28461404,N,12145.93564773,E,2,09,1.0,30.000,M,-2.801,M,5.0,0129*6E
$GPVTG,111,T,,M,5.88,N,10.88,K,D*23
$GPHDT,110.521,T*33
$GPGGA,092911.00,3118.28426439,N,12145.93658466,E,2,09,1.0,30.000,M,-2.801,M,5.0,0129*68
$GPVTG,111,T,,M,5.88,N,10.88,K,D*23
$GPHDT,110.521,T*33
$GPGGA,092911.00,3118.28391475,N,12145.93752159,E,2,09,1.0,30.000,M,-2.801,M,5.0,0129*69
$GPVTG,111,T,,M,5.88,N,10.88,K,D*23
$GPHDT,110.521,T*33
$GPGGA,092911.00,3118.28356510,N,12145.93845852,E,2,09,1.0,30.000,M,-2.801,M,5.0,0129*6B
$GPVTG,111,T,,M,5.88,N,10.88,K,D*23
$GPHDT,110.521,T*33
$GPGGA,092911.00,3118.28321546,N,12145.93939545,E,2,09,1.0,30.000,M,-2.801,M,5.0,0129*69
$GPVTG,111,T,,M,5.88,N,10.88,K,D*23
$GPHDT,110.521,T*33
$GPGGA,092911.00,3118.28286581,N,12145.94033238,E,2,09,1.0,30.000,M,-2.801,M,5.0,0129*67
$GPVTG,111,T,,M,5.88,N,10.88,K,D*23
$GPHDT,110.521,T*33
$GPGGA,092911.00,3118.28251616,N,12145.94126931,E,2,09,1.0,30.000,M,-2.801,M,5.0,0129*67
$GPVTG,111,T,,M,5.88,N,10.88,K,D*23
$GPHDT,110.521,T*33
$GPGGA,092911.00,3118.28216652,N,12145.94220624,E,2,09,1.0,30.000,M,-2.801,M,5.0,0129*6A
$GPVTG,111,T,,M,5.88,N,10.88,K,D*23
$GPHDT,110.521,T*33
$GPGGA,092911.00,3118.28181687,N,12145.94314317,E,2,09,1.0,30.000,M,-2.801,M,5.0,0129*6C
$GPVTG,111,T,,M,5.88,N,10.88,K,D*23
$GPHDT,110.521,T*33
$GPGGA,092911.00,3118.28146723,N,12145.94408010,E,2,09,1.0,30.000,M,-2.801,M,5.0,0129*66
$GPVTG,111,T,,M,5.88,N,10.88,K,D*23
$GPHDT,110.521,T*33
$GPGGA,092911.00,3118.28111758,N,12145.94501703,E,2,09,1.0,30.000,M,-2.801,M,5.0,0129*65
$GPVTG,111,T,,M,5.88,N,10.88,K,D*23
$GPHDT,110.521,T*33
$GPGGA,092911.00,3118.28076794,N,12145.94595396,E,2,09,1.0,30.000,M,-2.801,M,5.0,0129*60
$GPVTG,111,T,,M,5.88,N,10.88,K,D*23
$GPHDT,110.521,T*33
$GPGGA,092911.00,3118.28041829,N,12145.94689089,E,2,09,1.0,30.000,M,-2.801,M,5.0,0129*6E
$GPVTG,111,T,,M,5.88,N,10.88,K,D*23
$GPHDT,110.521,T*33
$GPGGA,092911.00,3118.28006865,N,12145.94782782,E,2,09,1.0,30.000,M,-2.801,M,5.0,0129*63
$GPVTG,111,T,,M,5.88,N,10.88,K,D*23
$GPHDT,110.521,T*33
$GPGGA,092911.00,3118.27971900,N,12145.94876475,E,2,09,1.0,30.000,M,-2.801,M,5.0,0129*68
$GPVTG,111,T,,M,5.88,N,10.88,K,D*23
$GPHDT,110.521,T*33
$GPGGA,092911.00,3118.27936935,N,12145.94970168,E,2,09,1.0,30.000,M,-2.801,M,5.0,0129*63
$GPVTG,111,T,,M,5.88,N,10.88,K,D*23
$GPHDT,110.521,T*33
$GPGGA,092911.00,3118.27901971,N,12145.95063861,E,2,09,1.0,30.000,M,-2.801,M,5.0,0129*6D
$GPVTG,111,T,,M,5.88,N,10.88,K,D*23
$GPHDT,110.521,T*33
$GPGGA,092911.00,3118.27867006,N,12145.95157554,E,2,09,1.0,30.000,M,-2.801,M,5.0,0129*68
$GPVTG,111,T,,M,5.88,N,10.88,K,D*23
$GPHDT,110.521,T*33
$GPGGA,092911.00,3118.27832042,N,12145.95251247,E,2,09,1.0,30.000,M,-2.801,M,5.0,0129*68
$GPVTG,111,T,,M,5.88,N,10.88,K,D*23
$GPHDT,110.521,T*33
$GPGGA,092911.00,3118.27797077,N,12145.95344940,E,2,09,1.0,30.000,M,-2.801,M,5.0,0129*67
$GPVTG,111,T,,M,5.88,N,10.88,K,D*23
$GPHDT,110.521,T*33
$GPGGA,092911.00,3118.27762113,N,12145.95438633,E,2,09,1.0,30.000,M,-2.801,M,5.0,0129*69
$GPVTG,111,T,,M,5.88,N,10.88,K,D*23
$GPHDT,110.521,T*33
$GPGGA,092911.00,3118.27727148,N,12145.95532326,E,2,09,1.0,30.000,M,-2.801,M,5.0,0129*6C
$GPVTG,111,T,,M,5.88,N,10.88,K,D*23
$GPHDT,110.521,T*33
$GPGGA,092911.00,3118.27692184,N,12145.95626019,E,2,09,1.0,30.000,M,-2.801,M,5.0,0129*6A
$GPVTG,111,T,,M,5.88,N,10.88,K,D*23
$GPHDT,110.521,T*33
$GPGGA,092911.00,3118.27657219,N,12145.95719712,E,2,09,1.0,30.000,M,-2.801,M,5.0,0129*65
$GPVTG,111,T,,M,5.88,N,10.88,K,D*23
$GPHDT,110.521,T*33
$GPGGA,092911.00,3118.27622254,N,12145.95813405,E,2,09,1.0,30.000,M,-2.801,M,5.0,0129*6E
$GPVTG,111,T,,M,5.88,N,10.88,K,D*23
$GPHDT,110.521,T*33
$GPGGA,092911.00,3118.27587290,N,12145.95907098,E,2,09,1.0,30.000,M,-2.801,M,5.0,0129*6E
$GPVTG,111,T,,M,5.88,N,10.88,K,D*23
$GPHDT,110.521,T*33
$GPGGA,092911.00,3118.27552325,N,12145.96000791,E,2,09,1.0,30.000,M,-2.801,M,5.0,0129*6A
$GPVTG,111,T,,M,5.88,N,10.88,K,D*23
$GPHDT,110.521,T*33
$GPGGA,092911.00,3118.27517361,N,12145.96094484,E,2,09,1.0,30.000,M,-2.801,M,5.0,0129*61
$GPVTG,111,T,,M,5.88,N,10.88,K,D*23
$GPHDT,110.521,T*33
$GPGGA,092911.00,3118.27482396,N,12145.96188177,E,2,09,1.0,30.000,M,-2.801,M,5.0,0129*61
$GPVTG,111,T,,M,5.88,N,10.88,K,D*23
$GPHDT,110.521,T*33
$GPGGA,092911.00,3118.27447432,N,12145.96281870,E,2,09,1.0,30.000,M,-2.801,M,5.0,0129*65
$GPVTG,111,T,,M,5.88,N,10.88,K,D*23
$GPHDT,110.521,T*33
$GPGGA,092911.00,3118.27412467,N,12145.96375563,E,2,09,1.0,30.000,M,-2.801,M,5.0,0129*60
$GPVTG,111,T,,M,5.88,N,10.88,K,D*23
$GPHDT,110.521,T*33
$GPGGA,092911.00,3118.27377503,N,12145.96469256,E,2,09,1.0,30.000,M,-2.801,M,5.0,0129*6C
$GPVTG,111,T,,M,5.88,N,10.88,K,D*23
$GPHDT,110.521,T*33
$GPGGA,092911.00,3118.27342538,N,12145.96562950,E,2,09,1.0,30.000,M,-2.801,M,5.0,0129*65
$GPVTG,111,T,,M,5.88,N,10.88,K,D*23
$GPHDT,110.521,T*33
$GPGGA,092911.00,3118.27307573,N,12145.96656643,E,2,09,1.0,30.000,M,-2.801,M,5.0,0129*62
$GPVTG,111,T,,M,5.88,N,10.88,K,D*23
$GPHDT,110.521,T*33
$GPGGA,092911.00,3118.27272609,N,12145.96750336,E,2,09,1.0,30.000,M,-2.801,M,5.0,0129*6F
$GPVTG,111,T,,M,5.88,N,10.88,K,D*23
$GPHDT,110.521,T*33
$GPGGA,092911.00,3118.27237644,N,12145.96844029,E,2,09,1.0,30.000,M,-2.801,M,5.0,0129*60
$GPVTG,111,T,,M,5.88,N,10.88,K,D*23
$GPHDT,110.521,T*33
$GPGGA,092911.00,3118.27202680,N,12145.96937722,E,2,09,1.0,30.000,M,-2.801,M,5.0,0129*67
$GPVTG,111,T,,M,5.88,N,10.88,K,D*23
$GPHDT,110.521,T*33
$GPGGA,092911.00,3118.27167715,N,12145.97031415,E,2,09,1.0,30.000,M,-2.801,M,5.0,0129*63
$GPVTG,111,T,,M,5.88,N,10.88,K,D*23
$GPHDT,110.521,T*33
$GPGGA,092911.00,3118.27132751,N,12145.97125108,E,2,09,1.0,30.000,M,-2.801,M,5.0,0129*6E
$GPVTG,111,T,,M,5.88,N,10.88,K,D*23
$GPHDT,110.521,T*33
$GPGGA,092911.00,3118.27097786,N,12145.97218801,E,2,09,1.0,30.000,M,-2.801,M,5.0,0129*67
$GPVTG,111,T,,M,5.88,N,10.88,K,D*23
$GPHDT,110.521,T*33
$GPGGA,092911.00,3118.27062822,N,12145.97312494,E,2,09,1.0,30.000,M,-2.801,M,5.0,0129*67
$GPVTG,111,T,,M,5.88,N,10.88,K,D*23
$GPHDT,110.521,T*33
$GPGGA,092911.00,3118.27027857,N,12145.97406187,E,2,09,1.0,30.000,M,-2.801,M,5.0,0129*61
$GPVTG,111,T,,M,5.88,N,10.88,K,D*23
$GPHDT,110.521,T*33
$GPGGA,092911.00,3118.26992893,N,12145.97499880,E,2,09,1.0,30.000,M,-2.801,M,5.0,0129*67
$GPVTG,111,T,,M,5.88,N,10.88,K,D*23
$GPHDT,110.521,T*33
$GPGGA,092911.00,3118.26957928,N,12145.97593573,E,2,09,1.0,30.000,M,-2.801,M,5.0,0129*65
$GPVTG,111,T,,M,5.88,N,10.88,K,D*23
$GPHDT,110.521,T*33
$GPGGA,092911.00,3118.26922963,N,12145.97687266,E,2,09,1.0,30.000,M,-2.801,M,5.0,0129*6D
$GPVTG,111,T,,M,5.88,N,10.88,K,D*23
$GPHDT,110.521,T*33
$GPGGA,092911.00,3118.26887999,N,12145.97780959,E,2,09,1.0,30.000,M,-2.801,M,5.0,0129*67
$GPVTG,111,T,,M,5.88,N,10.88,K,D*23
$GPHDT,110.521,T*33
$GPGGA,092911.00,3118.26853034,N,12145.97874652,E,2,09,1.0,30.000,M,-2.801,M,5.0,0129*60
$GPVTG,111,T,,M,5.88,N,10.88,K,D*23
$GPHDT,110.521,T*33
$GPGGA,092911.00,3118.26818070,N,12145.97968345,E,2,09,1.0,30.000,M,-2.801,M,5.0,0129*60
$GPVTG,111,T,,M,5.88,N,10.88,K,D*23
$GPHDT,110.521,T*33
$GPGGA,092911.00,3118.26783105,N,12145.98062038,E,2,09,1.0,30.000,M,-2.801,M,5.0,0129*6B
$GPVTG,111,T,,M,5.88,N,10.88,K,D*23
$GPHDT,110.521,T*33
$GPGGA,092911.00,3118.26748141,N,12145.98155731,E,2,09,1.0,30.000,M,-2.801,M,5.0,0129*67
$GPVTG,111,T,,M,5.88,N,10.88,K,D*23
$GPHDT,110.521,T*33
$GPGGA,092911.00,3118.26713176,N,12145.98249424,E,2,09,1.0,30.000,M,-2.801,M,5.0,0129*64
$GPVTG,111,T,,M,5.88,N,10.88,K,D*23
$GPHDT,110.521,T*33
$GPGGA,092911.00,3118.26678212,N,12145.98343117,E,2,09,1.0,30.000,M,-2.801,M,5.0,0129*67
$GPVTG,111,T,,M,5.88,N,10.88,K,D*23
$GPHDT,110.521,T*33
$GPGGA,092911.00,3118.26643247,N,12145.98436810,E,2,09,1.0,30.000,M,-2.801,M,5.0,0129*64
$GPVTG,111,T,,M,5.88,N,10.88,K,D*23
$GPHDT,110.521,T*33
$GPGGA,092911.00,3118.26608282,N,12145.98530503,E,2,09,1.0,30.000,M,-2.801,M,5.0,0129*6A
$GPVTG,111,T,,M,5.88,N,10.88,K,D*23
$GPHDT,110.521,T*33
$GPGGA,092911.00,3118.26573318,N,12145.98624196,E,2,09,1.0,30.000,M,-2.801,M,5.0,0129*69
$GPVTG,111,T,,M,5.88,N,10.88,K,D*23
$GPHDT,110.521,T*33
$GPGGA,092911.00,3118.26538353,N,12145.98717889,E,2,09,1.0,30.000,M,-2.801,M,5.0,0129*6F
$GPVTG,111,T,,M,5.88,N,10.88,K,D*23
$GPHDT,110.521,T*33
$GPGGA,092911.00,3118.26503389,N,12145.98811582,E,2,09,1.0,30.000,M,-2.801,M,5.0,0129*6F
$GPVTG,111,T,,M,5.88,N,10.88,K,D*23
$GPHDT,110.521,T*33
$GPGGA,092911.00,3118.26468424,N,12145.98905275,E,2,09,1.0,30.000,M,-2.801,M,5.0,0129*68
$GPVTG,111,T,,M,5.88,N,10.88,K,D*23
$GPHDT,110.521,T*33
$GPGGA,092911.00,3118.26433460,N,12145.98998968,E,2,09,1.0,30.000,M,-2.801,M,5.0,0129*65
$GPVTG,111,T,,M,5.88,N,10.88,K,D*23
$GPHDT,110.521,T*33
$GPGGA,092911.00,3118.26398495,N,12145.99092661,E,2,09,1.0,30.000,M,-2.801,M,5.0,0129*6D
$GPVTG,111,T,,M,5.88,N,10.88,K,D*23
$GPHDT,110.521,T*33
$GPGGA,092911.00,3118.26363531,N,12145.99186354,E,2,09,1.0,30.000,M,-2.801,M,5.0,0129*61
$GPVTG,111,T,,M,5.88,N,10.88,K,D*23
$GPHDT,110.521,T*33
$GPGGA,092911.00,3118.26328566,N,12145.99280047,E,2,09,1.0,30.000,M,-2.801,M,5.0,0129*68
$GPVTG,111,T,,M,5.88,N,10.88,K,D*23
$GPHDT,110.521,T*33
$GPGGA,092911.00,3118.26293601,N,12145.99373740,E,2,09,1.0,30.000,M,-2.801,M,5.0,0129*66
$GPVTG,111,T,,M,5.88,N,10.88,K,D*23
$GPHDT,110.521,T*33
$GPGGA,092911.00,3118.26258637,N,12145.99467433,E,2,09,1.0,30.000,M,-2.801,M,5.0,0129*61
$GPVTG,111,T,,M,5.88,N,10.88,K,D*23
$GPHDT,110.521,T*33
$GPGGA,092911.00,3118.26223672,N,12145.99561126,E,2,09,1.0,30.000,M,-2.801,M,5.0,0129*6A
$GPVTG,111,T,,M,5.88,N,10.88,K,D*23
$GPHDT,110.521,T*33
$GPGGA,092911.00,3118.26188708,N,12145.99654819,E,2,09,1.0,30.000,M,-2.801,M,5.0,0129*64
$GPVTG,111,T,,M,5.88,N,10.88,K,D*23
$GPHDT,110.521,T*33
$GPGGA,092911.00,3118.26153743,N,12145.99748512,E,2,09,1.0,30.000,M,-2.801,M,5.0,0129*67
$GPVTG,111,T,,M,5.88,N,10.88,K,D*23
$GPHDT,110.521,T*33
$GPGGA,092911.00,3118.26118779,N,12145.99842205,E,2,09,1.0,30.000,M,-2.801,M,5.0,0129*65
$GPVTG,111,T,,M,5.88,N,10.88,K,D*23
$GPHDT,110.521,T*33
$GPGGA,092911.00,3118.26083814,N,12145.99935898,E,2,09,1.0,30.000,M,-2.801,M,5.0,0129*6D
$GPVTG,111,T,,M,5.88,N,10.88,K,D*23
$GPHDT,110.521,T*33
$GPGGA,092911.00,3118.26048850,N,12146.00029591,E,2,09,1.0,30.000,M,-2.801,M,5.0,0129*69
$GPVTG,111,T,,M,5.88,N,10.88,K,D*23
$GPHDT,110.521,T*33
$GPGGA,092911.00,3118.26013885,N,12146.00123284,E,2,09,1.0,30.000,M,-2.801,M,5.0,0129*67
$GPVTG,111,T,,M,5.88,N,10.88,K,D*23
$GPHDT,110.521,T*33
$GPGGA,092911.00,3118.25978920,N,12146.00216977,E,2,09,1.0,30.000,M,-2.801,M,5.0,0129*6C
$GPVTG,111,T,,M,5.88,N,10.88,K,D*23
$GPHDT,110.521,T*33
$GPGGA,092911.00,3118.25943956,N,12146.00310670,E,2,09,1.0,30.000,M,-2.801,M,5.0,0129*6A
$GPVTG,111,T,,M,5.88,N,10.88,K,D*23
$GPHDT,110.521,T*33
$GPGGA,092911.00,3118.25908991,N,12146.00404363,E,2,09,1.0,30.000,M,-2.801,M,5.0,0129*6B
$GPVTG,111,T,,M,5.88,N,10.88,K,D*23
$GPHDT,110.521,T*33
$GPGGA,092911.00,3118.25874027,N,12146.00498056,E,2,09,1.0,30.000,M,-2.801,M,5.0,0129*65
$GPVTG,111,T,,M,5.88,N,10.88,K,D*23
$GPHDT,110.521,T*33
$GPGGA,092911.00,3118.25839062,N,12146.00591749,E,2,09,1.0,30.000,M,-2.801,M,5.0,0129*6C
$GPVTG,111,T,,M,5.88,N,10.88,K,D*23
$GPHDT,110.521,T*33
$GPGGA,092911.00,3118.25804098,N,12146.00685442,E,2,09,1.0,30.000,M,-2.801,M,5.0,0129*69
$GPVTG,111,T,,M,5.88,N,10.88,K,D*23
$GPHDT,110.521,T*33
$GPGGA,092911.00,3118.25769133,N,12146.00779135,E,2,09,1.0,30.000,M,-2.801,M,5.0,0129*6A
$GPVTG,111,T,,M,5.88,N,10.88,K,D*23
$GPHDT,110.521,T*33
$GPGGA,092911.00,3118.25734169,N,12146.00872828,E,2,09,1.0,30.000,M,-2.801,M,5.0,0129*6C
$GPVTG,111,T,,M,5.88,N,10.88,K,D*23
$GPHDT,110.521,T*33
$GPGGA,092911.00,3118.25699204,N,12146.00966521,E,2,09,1.0,30.000,M,-2.801,M,5.0,0129*62
$GPVTG,111,T,,M,5.88,N,10.88,K,D*23
$GPHDT,110.521,T*33
$GPGGA,092911.00,3118.25664239,N,12146.01060214,E,2,09,1.0,30.000,M,-2.801,M,5.0,0129*61
$GPVTG,111,T,,M,5.88,N,10.88,K,D*23
$GPHDT,110.521,T*33
$GPGGA,092911.00,3118.25629275,N,12146.01153907,E,2,09,1.0,30.000,M,-2.801,M,5.0,0129*68
$GPVTG,111,T,,M,5.88,N,10.88,K,D*23
$GPHDT,110.521,T*33
$GPGGA,092911.00,3118.25594310,N,12146.01247600,E,2,09,1.0,30.000,M,-2.801,M,5.0,0129*61
$GPVTG,111,T,,M,5.88,N,10.88,K,D*23
$GPHDT,110.521,T*33
$GPGGA,092911.00,3118.25559346,N,12146.01341293,E,2,09,1.0,30.000,M,-2.801,M,5.0,0129*6A
$GPVTG,111,T,,M,5.88,N,10.88,K,D*23
$GPHDT,110.521,T*33
$GPGGA,092911.00,3118.25524381,N,12146.01434986,E,2,09,1.0,30.000,M,-2.801,M,5.0,0129*61
$GPVTG,111,T,,M,5.88,N,10.88,K,D*23
$GPHDT,110.521,T*33
$GPGGA,092911.00,3118.25489417,N,12146.01528679,E,2,09,1.0,30.000,M,-2.801,M,5.0,0129*6C
$GPVTG,111,T,,M,5.88,N,10.88,K,D*23
$GPHDT,110.521,T*33
$GPGGA,092911.00,3118.25454452,N,12146.01622372,E,2,09,1.0,30.000,M,-2.801,M,5.0,0129*6A
